[
    {
        "id": 1,
        "lat": 41.136968,
        "long": -8.584705,
        "valid_address": "Tv. do Regato 1, 4430 Oliveira do Douro, Portugal",
        "timestamp": "2024-10-14T18:18:14",
        "source": "PORTO_FREE_WIFI",
        "pii_field_1": "pii_data_1",
        "pii_field_2": "secure_info_1",
        "non_pii_field_1": "non_pii_data_1",
        "non_pii_field_2": "additional_info_1"
    },
    {
        "id": 2,
        "lat": 41.171462,
        "long": -8.621171,
        "valid_address": "R. de Monsanto 383A, 4250 Porto, Portugal",
        "timestamp": "2024-10-08T01:46:12",
        "source": "PORTO_FREE_WIFI",
        "pii_field_1": "pii_data_2",
        "pii_field_2": "secure_info_2",
        "non_pii_field_1": "non_pii_data_2",
        "non_pii_field_2": "additional_info_2"
    },
    {
        "id": 3,
        "lat": 41.143145,
        "long": -8.63325,
        "valid_address": "Cais do Cavaco 172, 4400-087 Vila Nova de Gaia, Portugal",
        "timestamp": "2024-10-15T12:32:17",
        "source": "PORTO_FREE_WIFI",
        "pii_field_1": "pii_data_3",
        "pii_field_2": "secure_info_3",
        "non_pii_field_1": "non_pii_data_3",
        "non_pii_field_2": "additional_info_3"
    },
    {
        "id": 4,
        "lat": 41.12361,
        "long": -8.650132,
        "valid_address": "R. Viso 173, 4400-457 Canidelo, Portugal",
        "timestamp": "2024-10-10T11:28:46",
        "source": "PORTO_FREE_WIFI",
        "pii_field_1": "pii_data_4",
        "pii_field_2": "secure_info_4",
        "non_pii_field_1": "non_pii_data_4",
        "non_pii_field_2": "additional_info_4"
    },
    {
        "id": 5,
        "lat": 41.140164,
        "long": -8.581908,
        "valid_address": "4CR9+36 Vila Nova de Gaia, Portugal",
        "timestamp": "2024-10-26T19:45:48",
        "source": "PORTO_FREE_WIFI",
        "pii_field_1": "pii_data_5",
        "pii_field_2": "secure_info_5",
        "non_pii_field_1": "non_pii_data_5",
        "non_pii_field_2": "additional_info_5"
    },
    {
        "id": 6,
        "lat": 41.139132,
        "long": -8.621851,
        "valid_address": "R. Pereira da Costa 86, 4400-161 Vila Nova de Gaia, Portugal",
        "timestamp": "2024-10-16T01:32:49",
        "source": "PORTO_FREE_WIFI",
        "pii_field_1": "pii_data_6",
        "pii_field_2": "secure_info_6",
        "non_pii_field_1": "non_pii_data_6",
        "non_pii_field_2": "additional_info_6"
    },
    {
        "id": 7,
        "lat": 41.141492,
        "long": -8.623879,
        "valid_address": "R. Pescaria 18, 4400-156 Vila Nova de Gaia, Portugal",
        "timestamp": "2024-10-01T09:51:16",
        "source": "PORTO_FREE_WIFI",
        "pii_field_1": "pii_data_7",
        "pii_field_2": "secure_info_7",
        "non_pii_field_1": "non_pii_data_7",
        "non_pii_field_2": "additional_info_7"
    },
    {
        "id": 8,
        "lat": 41.155121,
        "long": -8.640637,
        "valid_address": "R. Alberto de Oliveira 28, 4150-391 Porto, Portugal",
        "timestamp": "2024-10-21T16:27:57",
        "source": "PORTO_FREE_WIFI",
        "pii_field_1": "pii_data_8",
        "pii_field_2": "secure_info_8",
        "non_pii_field_1": "non_pii_data_8",
        "non_pii_field_2": "additional_info_8"
    },
    {
        "id": 9,
        "lat": 41.161041,
        "long": -8.60265,
        "valid_address": "R. de Gil Vicente 2, Porto, Portugal",
        "timestamp": "2024-10-05T09:06:24",
        "source": "PORTO_FREE_WIFI",
        "pii_field_1": "pii_data_9",
        "pii_field_2": "secure_info_9",
        "non_pii_field_1": "non_pii_data_9",
        "non_pii_field_2": "additional_info_9"
    },
    {
        "id": 10,
        "lat": 41.150647,
        "long": -8.591656,
        "valid_address": "Rua Pinto Bessa 522 r/c centro esquerdo, 4300-428 Porto, Portugal",
        "timestamp": "2024-10-29T08:03:06",
        "source": "PORTO_FREE_WIFI",
        "pii_field_1": "pii_data_10",
        "pii_field_2": "secure_info_10",
        "non_pii_field_1": "non_pii_data_10",
        "non_pii_field_2": "additional_info_10"
    },
    {
        "id": 11,
        "lat": 41.137713,
        "long": -8.608577,
        "valid_address": "Jardim do Morro, 4430-999 Vila Nova de Gaia, Portugal",
        "timestamp": "2024-10-07T02:19:28",
        "source": "PORTO_FREE_WIFI",
        "pii_field_1": "pii_data_11",
        "pii_field_2": "secure_info_11",
        "non_pii_field_1": "non_pii_data_11",
        "non_pii_field_2": "additional_info_11"
    },
    {
        "id": 12,
        "lat": 41.158265,
        "long": -8.60915,
        "valid_address": "R. de Faria Guimar\u00e3es 99, 4000-522 Porto, Portugal",
        "timestamp": "2024-10-22T23:05:19",
        "source": "PORTO_FREE_WIFI",
        "pii_field_1": "pii_data_12",
        "pii_field_2": "secure_info_12",
        "non_pii_field_1": "non_pii_data_12",
        "non_pii_field_2": "additional_info_12"
    },
    {
        "id": 13,
        "lat": 41.138502,
        "long": -8.576785,
        "valid_address": "4CQF+C7 Vila Nova de Gaia, Portugal",
        "timestamp": "2024-10-15T04:56:43",
        "source": "PORTO_FREE_WIFI",
        "pii_field_1": "pii_data_13",
        "pii_field_2": "secure_info_13",
        "non_pii_field_1": "non_pii_data_13",
        "non_pii_field_2": "additional_info_13"
    },
    {
        "id": 14,
        "lat": 41.142556,
        "long": -8.658121,
        "valid_address": "48VR+2Q Vila Nova de Gaia, Portugal",
        "timestamp": "2024-10-01T17:39:06",
        "source": "PORTO_FREE_WIFI",
        "pii_field_1": "pii_data_14",
        "pii_field_2": "secure_info_14",
        "non_pii_field_1": "non_pii_data_14",
        "non_pii_field_2": "additional_info_14"
    },
    {
        "id": 15,
        "lat": 41.148586,
        "long": -8.62636,
        "valid_address": "R. de Dom Manuel II 21, 4050-239 Porto, Portugal",
        "timestamp": "2024-10-26T15:24:03",
        "source": "PORTO_FREE_WIFI",
        "pii_field_1": "pii_data_15",
        "pii_field_2": "secure_info_15",
        "non_pii_field_1": "non_pii_data_15",
        "non_pii_field_2": "additional_info_15"
    },
    {
        "id": 16,
        "lat": 41.139984,
        "long": -8.567382,
        "valid_address": "R. Jo\u00e3o Deus 517, 4420 Valbom, Portugal",
        "timestamp": "2024-10-26T15:34:26",
        "source": "PORTO_FREE_WIFI",
        "pii_field_1": "pii_data_16",
        "pii_field_2": "secure_info_16",
        "non_pii_field_1": "non_pii_data_16",
        "non_pii_field_2": "additional_info_16"
    },
    {
        "id": 17,
        "lat": 41.159515,
        "long": -8.572009,
        "valid_address": "R. Peso da R\u00e9gua 9493, 4300-409 Porto, Portugal",
        "timestamp": "2024-10-10T23:56:01",
        "source": "PORTO_FREE_WIFI",
        "pii_field_1": "pii_data_17",
        "pii_field_2": "secure_info_17",
        "non_pii_field_1": "non_pii_data_17",
        "non_pii_field_2": "additional_info_17"
    },
    {
        "id": 18,
        "lat": 41.136025,
        "long": -8.607649,
        "valid_address": "Av. da Rep\u00fablica 333, 4430-198 Vila Nova de Gaia, Portugal",
        "timestamp": "2024-10-27T12:19:28",
        "source": "PORTO_FREE_WIFI",
        "pii_field_1": "pii_data_18",
        "pii_field_2": "secure_info_18",
        "non_pii_field_1": "non_pii_data_18",
        "non_pii_field_2": "additional_info_18"
    },
    {
        "id": 19,
        "lat": 41.155197,
        "long": -8.570012,
        "valid_address": "Rua do Lagarteiro 13, 4300-285 Porto, Portugal",
        "timestamp": "2024-10-13T16:35:16",
        "source": "PORTO_FREE_WIFI",
        "pii_field_1": "pii_data_19",
        "pii_field_2": "secure_info_19",
        "non_pii_field_1": "non_pii_data_19",
        "non_pii_field_2": "additional_info_19"
    },
    {
        "id": 20,
        "lat": 41.147408,
        "long": -8.62246,
        "valid_address": "R. de Dom Manuel II 4050, 4050-385 Porto, Portugal",
        "timestamp": "2024-10-03T13:13:47",
        "source": "PORTO_FREE_WIFI",
        "pii_field_1": "pii_data_20",
        "pii_field_2": "secure_info_20",
        "non_pii_field_1": "non_pii_data_20",
        "non_pii_field_2": "additional_info_20"
    },
    {
        "id": 21,
        "lat": 41.135742,
        "long": -8.65712,
        "valid_address": "Av. Eng. Ant\u00f3nio Leite de Castro 445, 4400 Canidelo, Portugal",
        "timestamp": "2024-10-14T17:40:15",
        "source": "PORTO_FREE_WIFI",
        "pii_field_1": "pii_data_21",
        "pii_field_2": "secure_info_21",
        "non_pii_field_1": "non_pii_data_21",
        "non_pii_field_2": "additional_info_21"
    },
    {
        "id": 22,
        "lat": 41.141086,
        "long": -8.631493,
        "valid_address": "49R9+CC Vila Nova de Gaia, Portugal",
        "timestamp": "2024-10-02T13:54:22",
        "source": "PORTO_FREE_WIFI",
        "pii_field_1": "pii_data_22",
        "pii_field_2": "secure_info_22",
        "non_pii_field_1": "non_pii_data_22",
        "non_pii_field_2": "additional_info_22"
    },
    {
        "id": 23,
        "lat": 41.144254,
        "long": -8.592976,
        "valid_address": "4CV4+PR Porto, Portugal",
        "timestamp": "2024-10-12T05:21:42",
        "source": "PORTO_FREE_WIFI",
        "pii_field_1": "pii_data_23",
        "pii_field_2": "secure_info_23",
        "non_pii_field_1": "non_pii_data_23",
        "non_pii_field_2": "additional_info_23"
    },
    {
        "id": 24,
        "lat": 41.171914,
        "long": -8.569441,
        "valid_address": "Estr. da Circunvala\u00e7\u00e3o 3737, 4350-113 Porto, Portugal",
        "timestamp": "2024-10-25T02:24:42",
        "source": "PORTO_FREE_WIFI",
        "pii_field_1": "pii_data_24",
        "pii_field_2": "secure_info_24",
        "non_pii_field_1": "non_pii_data_24",
        "non_pii_field_2": "additional_info_24"
    },
    {
        "id": 25,
        "lat": 41.165442,
        "long": -8.64303,
        "valid_address": "Av. do Bessa 581, 4100-012 Porto, Portugal",
        "timestamp": "2024-10-29T17:15:55",
        "source": "PORTO_FREE_WIFI",
        "pii_field_1": "pii_data_25",
        "pii_field_2": "secure_info_25",
        "non_pii_field_1": "non_pii_data_25",
        "non_pii_field_2": "additional_info_25"
    },
    {
        "id": 26,
        "lat": 41.125967,
        "long": -8.648234,
        "valid_address": "R. Padre Brito 110, 4400-530 Canidelo, Portugal",
        "timestamp": "2024-10-11T17:24:21",
        "source": "PORTO_FREE_WIFI",
        "pii_field_1": "pii_data_26",
        "pii_field_2": "secure_info_26",
        "non_pii_field_1": "non_pii_data_26",
        "non_pii_field_2": "additional_info_26"
    },
    {
        "id": 27,
        "lat": 41.159532,
        "long": -8.571566,
        "valid_address": "R. Peso da R\u00e9gua 298, 4300-409 Porto, Portugal",
        "timestamp": "2024-10-01T08:47:31",
        "source": "PORTO_FREE_WIFI",
        "pii_field_1": "pii_data_27",
        "pii_field_2": "secure_info_27",
        "non_pii_field_1": "non_pii_data_27",
        "non_pii_field_2": "additional_info_27"
    },
    {
        "id": 28,
        "lat": 41.173098,
        "long": -8.574493,
        "valid_address": "R. Nau Vit\u00f3ria 68, 4350-059 Porto, Portugal",
        "timestamp": "2024-10-13T05:47:47",
        "source": "PORTO_FREE_WIFI",
        "pii_field_1": "pii_data_28",
        "pii_field_2": "secure_info_28",
        "non_pii_field_1": "non_pii_data_28",
        "non_pii_field_2": "additional_info_28"
    },
    {
        "id": 29,
        "lat": 41.126071,
        "long": -8.656556,
        "valid_address": "R. Alvites 228, 4400-363 Canidelo, Portugal",
        "timestamp": "2024-10-06T21:27:30",
        "source": "PORTO_FREE_WIFI",
        "pii_field_1": "pii_data_29",
        "pii_field_2": "secure_info_29",
        "non_pii_field_1": "non_pii_data_29",
        "non_pii_field_2": "additional_info_29"
    },
    {
        "id": 30,
        "lat": 41.124377,
        "long": -8.598984,
        "valid_address": "R. Q.ta Pa\u00e7o de Rei 103, 4430-186 Vila Nova de Gaia, Portugal",
        "timestamp": "2024-10-26T14:02:55",
        "source": "PORTO_FREE_WIFI",
        "pii_field_1": "pii_data_30",
        "pii_field_2": "secure_info_30",
        "non_pii_field_1": "non_pii_data_30",
        "non_pii_field_2": "additional_info_30"
    },
    {
        "id": 31,
        "lat": 41.152451,
        "long": -8.654949,
        "valid_address": "Rua de Domingos Alv\u00e3o 21A, 4150-278 Porto, Portugal",
        "timestamp": "2024-10-04T20:54:32",
        "source": "PORTO_FREE_WIFI",
        "pii_field_1": "pii_data_31",
        "pii_field_2": "secure_info_31",
        "non_pii_field_1": "non_pii_data_31",
        "non_pii_field_2": "additional_info_31"
    },
    {
        "id": 32,
        "lat": 41.147133,
        "long": -8.585633,
        "valid_address": "R. Para\u00edso do Freixo 24, 4300 Porto, Portugal",
        "timestamp": "2024-10-08T21:41:53",
        "source": "PORTO_FREE_WIFI",
        "pii_field_1": "pii_data_32",
        "pii_field_2": "secure_info_32",
        "non_pii_field_1": "non_pii_data_32",
        "non_pii_field_2": "additional_info_32"
    },
    {
        "id": 33,
        "lat": 41.123225,
        "long": -8.586913,
        "valid_address": "R. Espiridi\u00e3o de Sousa 126, 4430-438 Vila Nova de Gaia, Portugal",
        "timestamp": "2024-10-06T09:40:50",
        "source": "PORTO_FREE_WIFI",
        "pii_field_1": "pii_data_33",
        "pii_field_2": "secure_info_33",
        "non_pii_field_1": "non_pii_data_33",
        "non_pii_field_2": "additional_info_33"
    },
    {
        "id": 34,
        "lat": 41.158868,
        "long": -8.568064,
        "valid_address": "R. de Valpa\u00e7os 81, 4300-137 Porto, Portugal",
        "timestamp": "2024-10-29T06:16:26",
        "source": "PORTO_FREE_WIFI",
        "pii_field_1": "pii_data_34",
        "pii_field_2": "secure_info_34",
        "non_pii_field_1": "non_pii_data_34",
        "non_pii_field_2": "additional_info_34"
    },
    {
        "id": 35,
        "lat": 41.138833,
        "long": -8.632097,
        "valid_address": "R. 28 de Janeiro 4400, 4400 Vila Nova de Gaia, Portugal",
        "timestamp": "2024-10-16T16:19:46",
        "source": "PORTO_FREE_WIFI",
        "pii_field_1": "pii_data_35",
        "pii_field_2": "secure_info_35",
        "non_pii_field_1": "non_pii_data_35",
        "non_pii_field_2": "additional_info_35"
    },
    {
        "id": 36,
        "lat": 41.142559,
        "long": -8.606939,
        "valid_address": "R. de S\u00e3o Lu\u00eds 42, 4000-509 Porto, Portugal",
        "timestamp": "2024-10-07T02:21:27",
        "source": "PORTO_FREE_WIFI",
        "pii_field_1": "pii_data_36",
        "pii_field_2": "secure_info_36",
        "non_pii_field_1": "non_pii_data_36",
        "non_pii_field_2": "additional_info_36"
    },
    {
        "id": 37,
        "lat": 41.165972,
        "long": -8.578804,
        "valid_address": "R. Conde Castelo Melhor 88, 4350 Porto, Portugal",
        "timestamp": "2024-10-20T21:39:39",
        "source": "PORTO_FREE_WIFI",
        "pii_field_1": "pii_data_37",
        "pii_field_2": "secure_info_37",
        "non_pii_field_1": "non_pii_data_37",
        "non_pii_field_2": "additional_info_37"
    },
    {
        "id": 38,
        "lat": 41.130431,
        "long": -8.615024,
        "valid_address": "R. Bairro da C.p. 15A, 4400-088 Vila Nova de Gaia, Portugal",
        "timestamp": "2024-10-07T00:30:38",
        "source": "PORTO_FREE_WIFI",
        "pii_field_1": "pii_data_38",
        "pii_field_2": "secure_info_38",
        "non_pii_field_1": "non_pii_data_38",
        "non_pii_field_2": "additional_info_38"
    },
    {
        "id": 39,
        "lat": 41.125713,
        "long": -8.632085,
        "valid_address": "R. Machado dos Santos 820, 4400-209 Vila Nova de Gaia, Portugal",
        "timestamp": "2024-10-16T01:57:53",
        "source": "PORTO_FREE_WIFI",
        "pii_field_1": "pii_data_39",
        "pii_field_2": "secure_info_39",
        "non_pii_field_1": "non_pii_data_39",
        "non_pii_field_2": "additional_info_39"
    },
    {
        "id": 40,
        "lat": 41.146524,
        "long": -8.626425,
        "valid_address": "Jardins do Pal\u00e1cio de Cristal, R. de Dom Manuel II, 4050-346 Porto, Portugal",
        "timestamp": "2024-10-14T12:25:24",
        "source": "PORTO_FREE_WIFI",
        "pii_field_1": "pii_data_40",
        "pii_field_2": "secure_info_40",
        "non_pii_field_1": "non_pii_data_40",
        "non_pii_field_2": "additional_info_40"
    },
    {
        "id": 41,
        "lat": 41.124495,
        "long": -8.623564,
        "valid_address": "R. Leote do Rego 271, 4400-286 Vila Nova de Gaia, Portugal",
        "timestamp": "2024-10-17T23:30:37",
        "source": "PORTO_FREE_WIFI",
        "pii_field_1": "pii_data_41",
        "pii_field_2": "secure_info_41",
        "non_pii_field_1": "non_pii_data_41",
        "non_pii_field_2": "additional_info_41"
    },
    {
        "id": 42,
        "lat": 41.131481,
        "long": -8.595932,
        "valid_address": "R. Vieira Pinto 537, 4430-999 Vila Nova de Gaia, Portugal",
        "timestamp": "2024-10-21T04:17:57",
        "source": "PORTO_FREE_WIFI",
        "pii_field_1": "pii_data_42",
        "pii_field_2": "secure_info_42",
        "non_pii_field_1": "non_pii_data_42",
        "non_pii_field_2": "additional_info_42"
    },
    {
        "id": 43,
        "lat": 41.14263,
        "long": -8.609297,
        "valid_address": "Largo Primeiro de Dezembro 1, 4000-098 Porto, Portugal",
        "timestamp": "2024-10-25T17:19:20",
        "source": "PORTO_FREE_WIFI",
        "pii_field_1": "pii_data_43",
        "pii_field_2": "secure_info_43",
        "non_pii_field_1": "non_pii_data_43",
        "non_pii_field_2": "additional_info_43"
    },
    {
        "id": 44,
        "lat": 41.142997,
        "long": -8.592399,
        "valid_address": "4CR4+WR, 4300-059 Porto, Portugal",
        "timestamp": "2024-10-16T18:51:11",
        "source": "PORTO_FREE_WIFI",
        "pii_field_1": "pii_data_44",
        "pii_field_2": "secure_info_44",
        "non_pii_field_1": "non_pii_data_44",
        "non_pii_field_2": "additional_info_44"
    },
    {
        "id": 45,
        "lat": 41.129866,
        "long": -8.615449,
        "valid_address": "R. do Conselheiro Veloso da Cruz 313, 4400-088 Vila Nova de Gaia, Portugal",
        "timestamp": "2024-10-10T17:45:56",
        "source": "PORTO_FREE_WIFI",
        "pii_field_1": "pii_data_45",
        "pii_field_2": "secure_info_45",
        "non_pii_field_1": "non_pii_data_45",
        "non_pii_field_2": "additional_info_45"
    },
    {
        "id": 46,
        "lat": 41.120888,
        "long": -8.632393,
        "valid_address": "Tv. Domingos de Matos 154, 4400-122 Vila Nova de Gaia, Portugal",
        "timestamp": "2024-10-10T00:59:45",
        "source": "PORTO_FREE_WIFI",
        "pii_field_1": "pii_data_46",
        "pii_field_2": "secure_info_46",
        "non_pii_field_1": "non_pii_data_46",
        "non_pii_field_2": "additional_info_46"
    },
    {
        "id": 47,
        "lat": 41.140152,
        "long": -8.655864,
        "valid_address": "Av. Agustina Bessa Lu\u00eds 80, 4400-204 Vila Nova de Gaia, Portugal",
        "timestamp": "2024-10-01T18:02:12",
        "source": "PORTO_FREE_WIFI",
        "pii_field_1": "pii_data_47",
        "pii_field_2": "secure_info_47",
        "non_pii_field_1": "non_pii_data_47",
        "non_pii_field_2": "additional_info_47"
    },
    {
        "id": 48,
        "lat": 41.158989,
        "long": -8.591289,
        "valid_address": "Tv. das Antas 178, 4350-085 Porto, Portugal",
        "timestamp": "2024-10-03T22:18:26",
        "source": "PORTO_FREE_WIFI",
        "pii_field_1": "pii_data_48",
        "pii_field_2": "secure_info_48",
        "non_pii_field_1": "non_pii_data_48",
        "non_pii_field_2": "additional_info_48"
    },
    {
        "id": 49,
        "lat": 41.16281,
        "long": -8.63515,
        "valid_address": "R. de Pedro Hispano 610, 4250-367 Porto, Portugal",
        "timestamp": "2024-10-22T07:15:52",
        "source": "PORTO_FREE_WIFI",
        "pii_field_1": "pii_data_49",
        "pii_field_2": "secure_info_49",
        "non_pii_field_1": "non_pii_data_49",
        "non_pii_field_2": "additional_info_49"
    },
    {
        "id": 50,
        "lat": 41.158815,
        "long": -8.611812,
        "valid_address": "Tv. da Lapa 13, 4000-491 Porto, Portugal",
        "timestamp": "2024-10-07T01:38:44",
        "source": "PORTO_FREE_WIFI",
        "pii_field_1": "pii_data_50",
        "pii_field_2": "secure_info_50",
        "non_pii_field_1": "non_pii_data_50",
        "non_pii_field_2": "additional_info_50"
    },
    {
        "id": 51,
        "lat": 41.151564,
        "long": -8.565783,
        "valid_address": "R. Pte. do Gato 496, 4300 Porto, Portugal",
        "timestamp": "2024-10-11T12:58:04",
        "source": "PORTO_FREE_WIFI",
        "pii_field_1": "pii_data_51",
        "pii_field_2": "secure_info_51",
        "non_pii_field_1": "non_pii_data_51",
        "non_pii_field_2": "additional_info_51"
    },
    {
        "id": 52,
        "lat": 41.175598,
        "long": -8.619325,
        "valid_address": "R. Cris\u00e2ntemos 43, 4250-497 Porto, Portugal",
        "timestamp": "2024-10-27T18:52:03",
        "source": "PORTO_FREE_WIFI",
        "pii_field_1": "pii_data_52",
        "pii_field_2": "secure_info_52",
        "non_pii_field_1": "non_pii_data_52",
        "non_pii_field_2": "additional_info_52"
    },
    {
        "id": 53,
        "lat": 41.161286,
        "long": -8.665928,
        "valid_address": "R. Adriano Correia de Oliveira 15, 4150-598 Porto, Portugal",
        "timestamp": "2024-10-18T00:54:16",
        "source": "PORTO_FREE_WIFI",
        "pii_field_1": "pii_data_53",
        "pii_field_2": "secure_info_53",
        "non_pii_field_1": "non_pii_data_53",
        "non_pii_field_2": "additional_info_53"
    },
    {
        "id": 54,
        "lat": 41.182409,
        "long": -8.661506,
        "valid_address": "58JQ+X9 Senhora da Hora, Portugal",
        "timestamp": "2024-10-14T19:32:03",
        "source": "PORTO_FREE_WIFI",
        "pii_field_1": "pii_data_54",
        "pii_field_2": "secure_info_54",
        "non_pii_field_1": "non_pii_data_54",
        "non_pii_field_2": "additional_info_54"
    },
    {
        "id": 55,
        "lat": 41.113048,
        "long": -8.575513,
        "valid_address": "R. Q.ta do Pedrinho 63, 4430-999 Oliveira do Douro, Portugal",
        "timestamp": "2024-10-17T02:03:48",
        "source": "PORTO_FREE_WIFI",
        "pii_field_1": "pii_data_55",
        "pii_field_2": "secure_info_55",
        "non_pii_field_1": "non_pii_data_55",
        "non_pii_field_2": "additional_info_55"
    },
    {
        "id": 56,
        "lat": 41.112627,
        "long": -8.609912,
        "valid_address": "R. Diogo Brand\u00e3o 161, 4430 Vila Nova de Gaia, Portugal",
        "timestamp": "2024-10-20T10:42:22",
        "source": "PORTO_FREE_WIFI",
        "pii_field_1": "pii_data_56",
        "pii_field_2": "secure_info_56",
        "non_pii_field_1": "non_pii_data_56",
        "non_pii_field_2": "additional_info_56"
    },
    {
        "id": 57,
        "lat": 41.112641,
        "long": -8.639173,
        "valid_address": "R. S\u00e3o Pedro 101, 4405 Madalena, Portugal",
        "timestamp": "2024-10-17T19:42:53",
        "source": "PORTO_FREE_WIFI",
        "pii_field_1": "pii_data_57",
        "pii_field_2": "secure_info_57",
        "non_pii_field_1": "non_pii_data_57",
        "non_pii_field_2": "additional_info_57"
    },
    {
        "id": 58,
        "lat": 41.144907,
        "long": -8.571858,
        "valid_address": "R. da Levada 3, 4300 Porto, Portugal",
        "timestamp": "2024-10-19T13:41:12",
        "source": "PORTO_FREE_WIFI",
        "pii_field_1": "pii_data_58",
        "pii_field_2": "secure_info_58",
        "non_pii_field_1": "non_pii_data_58",
        "non_pii_field_2": "additional_info_58"
    },
    {
        "id": 59,
        "lat": 41.153994,
        "long": -8.65067,
        "valid_address": "R. de Serralves 181, 4150-262 Porto, Portugal",
        "timestamp": "2024-10-04T03:23:09",
        "source": "PORTO_FREE_WIFI",
        "pii_field_1": "pii_data_59",
        "pii_field_2": "secure_info_59",
        "non_pii_field_1": "non_pii_data_59",
        "non_pii_field_2": "additional_info_59"
    },
    {
        "id": 60,
        "lat": 41.122959,
        "long": -8.646807,
        "valid_address": "Beco Paniceiro 48, 4400 Canidelo, Portugal",
        "timestamp": "2024-10-04T00:44:10",
        "source": "PORTO_FREE_WIFI",
        "pii_field_1": "pii_data_60",
        "pii_field_2": "secure_info_60",
        "non_pii_field_1": "non_pii_data_60",
        "non_pii_field_2": "additional_info_60"
    },
    {
        "id": 61,
        "lat": 41.16641,
        "long": -8.686869,
        "valid_address": "R. de Timor 114, 4150-728 Porto, Portugal",
        "timestamp": "2024-10-03T22:37:55",
        "source": "PORTO_FREE_WIFI",
        "pii_field_1": "pii_data_61",
        "pii_field_2": "secure_info_61",
        "non_pii_field_1": "non_pii_data_61",
        "non_pii_field_2": "additional_info_61"
    },
    {
        "id": 62,
        "lat": 41.155576,
        "long": -8.637712,
        "valid_address": "R. de Guerra Junqueiro 275, 4150-386 Porto, Portugal",
        "timestamp": "2024-10-04T06:55:53",
        "source": "PORTO_FREE_WIFI",
        "pii_field_1": "pii_data_62",
        "pii_field_2": "secure_info_62",
        "non_pii_field_1": "non_pii_data_62",
        "non_pii_field_2": "additional_info_62"
    },
    {
        "id": 63,
        "lat": 41.130364,
        "long": -8.578188,
        "valid_address": "Tv. Fonte da Vinha 80, 4430-451 Vila Nova de Gaia, Portugal",
        "timestamp": "2024-10-08T11:56:42",
        "source": "PORTO_FREE_WIFI",
        "pii_field_1": "pii_data_63",
        "pii_field_2": "secure_info_63",
        "non_pii_field_1": "non_pii_data_63",
        "non_pii_field_2": "additional_info_63"
    },
    {
        "id": 64,
        "lat": 41.109056,
        "long": -8.561725,
        "valid_address": "R. Sr. do Padr\u00e3o 130, 4430 Avintes, Portugal",
        "timestamp": "2024-10-22T09:42:49",
        "source": "PORTO_FREE_WIFI",
        "pii_field_1": "pii_data_64",
        "pii_field_2": "secure_info_64",
        "non_pii_field_1": "non_pii_data_64",
        "non_pii_field_2": "additional_info_64"
    },
    {
        "id": 65,
        "lat": 41.140938,
        "long": -8.571959,
        "valid_address": "Av. Escritor Costa Barreto 120, 4420-445 Valbom, Portugal",
        "timestamp": "2024-10-22T00:28:47",
        "source": "PORTO_FREE_WIFI",
        "pii_field_1": "pii_data_65",
        "pii_field_2": "secure_info_65",
        "non_pii_field_1": "non_pii_data_65",
        "non_pii_field_2": "additional_info_65"
    },
    {
        "id": 66,
        "lat": 41.172319,
        "long": -8.615869,
        "valid_address": "R. de Monsanto 813, 4250-289 Porto, Portugal",
        "timestamp": "2024-10-28T07:09:47",
        "source": "PORTO_FREE_WIFI",
        "pii_field_1": "pii_data_66",
        "pii_field_2": "secure_info_66",
        "non_pii_field_1": "non_pii_data_66",
        "non_pii_field_2": "additional_info_66"
    },
    {
        "id": 67,
        "lat": 41.173123,
        "long": -8.614661,
        "valid_address": "Rua do Amial 35, 4200-053 Porto, Portugal",
        "timestamp": "2024-10-02T18:54:33",
        "source": "PORTO_FREE_WIFI",
        "pii_field_1": "pii_data_67",
        "pii_field_2": "secure_info_67",
        "non_pii_field_1": "non_pii_data_67",
        "non_pii_field_2": "additional_info_67"
    },
    {
        "id": 68,
        "lat": 41.199857,
        "long": -8.697946,
        "valid_address": "R. Lu\u00eds Jos\u00e9 Alves 397, 4450-586 Le\u00e7a da Palmeira, Portugal",
        "timestamp": "2024-10-01T15:59:37",
        "source": "PORTO_FREE_WIFI",
        "pii_field_1": "pii_data_68",
        "pii_field_2": "secure_info_68",
        "non_pii_field_1": "non_pii_data_68",
        "non_pii_field_2": "additional_info_68"
    },
    {
        "id": 69,
        "lat": 41.168344,
        "long": -8.659283,
        "valid_address": "Av. do Dr. Antunes Guimar\u00e3es 603, 4100 Porto, Portugal",
        "timestamp": "2024-10-03T06:38:57",
        "source": "PORTO_FREE_WIFI",
        "pii_field_1": "pii_data_69",
        "pii_field_2": "secure_info_69",
        "non_pii_field_1": "non_pii_data_69",
        "non_pii_field_2": "additional_info_69"
    },
    {
        "id": 70,
        "lat": 41.149134,
        "long": -8.562439,
        "valid_address": "Ponte Do Gato, R. Pte. do Gato, 4300 Porto, Portugal",
        "timestamp": "2024-10-11T04:16:59",
        "source": "PORTO_FREE_WIFI",
        "pii_field_1": "pii_data_70",
        "pii_field_2": "secure_info_70",
        "non_pii_field_1": "non_pii_data_70",
        "non_pii_field_2": "additional_info_70"
    },
    {
        "id": 71,
        "lat": 41.199568,
        "long": -8.666934,
        "valid_address": "R. Tourais 61, 4460-116 Guif\u00f5es, Portugal",
        "timestamp": "2024-10-19T08:50:25",
        "source": "PORTO_FREE_WIFI",
        "pii_field_1": "pii_data_71",
        "pii_field_2": "secure_info_71",
        "non_pii_field_1": "non_pii_data_71",
        "non_pii_field_2": "additional_info_71"
    },
    {
        "id": 72,
        "lat": 41.199407,
        "long": -8.554981,
        "valid_address": "R. Apeadeiro 24, 4425 \u00c1guas Santas, Portugal",
        "timestamp": "2024-10-10T13:24:56",
        "source": "PORTO_FREE_WIFI",
        "pii_field_1": "pii_data_72",
        "pii_field_2": "secure_info_72",
        "non_pii_field_1": "non_pii_data_72",
        "non_pii_field_2": "additional_info_72"
    },
    {
        "id": 73,
        "lat": 41.104757,
        "long": -8.66192,
        "valid_address": "R. Mo\u00ednho de Vento 21AV, 4405-738 Vila Nova de Gaia, Portugal",
        "timestamp": "2024-10-29T00:06:01",
        "source": "PORTO_FREE_WIFI",
        "pii_field_1": "pii_data_73",
        "pii_field_2": "secure_info_73",
        "non_pii_field_1": "non_pii_data_73",
        "non_pii_field_2": "additional_info_73"
    },
    {
        "id": 74,
        "lat": 41.170536,
        "long": -8.644622,
        "valid_address": "R. Manuel Pinto de Azevedo 15, 4100-247 Porto, Portugal",
        "timestamp": "2024-10-04T12:16:53",
        "source": "PORTO_FREE_WIFI",
        "pii_field_1": "pii_data_74",
        "pii_field_2": "secure_info_74",
        "non_pii_field_1": "non_pii_data_74",
        "non_pii_field_2": "additional_info_74"
    },
    {
        "id": 75,
        "lat": 41.185551,
        "long": -8.654452,
        "valid_address": "Av. Fabril do Norte 717, 4460-314 Sra. da Hora, Portugal",
        "timestamp": "2024-10-15T21:49:40",
        "source": "PORTO_FREE_WIFI",
        "pii_field_1": "pii_data_75",
        "pii_field_2": "secure_info_75",
        "non_pii_field_1": "non_pii_data_75",
        "non_pii_field_2": "additional_info_75"
    },
    {
        "id": 76,
        "lat": 41.14117,
        "long": -8.641906,
        "valid_address": "Ch\u00e3s, 4400 Vila Nova de Gaia, Portugal",
        "timestamp": "2024-10-27T20:54:12",
        "source": "PORTO_FREE_WIFI",
        "pii_field_1": "pii_data_76",
        "pii_field_2": "secure_info_76",
        "non_pii_field_1": "non_pii_data_76",
        "non_pii_field_2": "additional_info_76"
    },
    {
        "id": 77,
        "lat": 41.140664,
        "long": -8.621005,
        "valid_address": "R. Pereira da Costa 19, 4400 Vila Nova de Gaia, Portugal",
        "timestamp": "2024-10-14T01:57:45",
        "source": "PORTO_FREE_WIFI",
        "pii_field_1": "pii_data_77",
        "pii_field_2": "secure_info_77",
        "non_pii_field_1": "non_pii_data_77",
        "non_pii_field_2": "additional_info_77"
    },
    {
        "id": 78,
        "lat": 41.182247,
        "long": -8.627648,
        "valid_address": "Pra\u00e7a Malaca 140, 4465-213 S\u00e3o Mamede de Infesta, Portugal",
        "timestamp": "2024-10-22T09:14:08",
        "source": "PORTO_FREE_WIFI",
        "pii_field_1": "pii_data_78",
        "pii_field_2": "secure_info_78",
        "non_pii_field_1": "non_pii_data_78",
        "non_pii_field_2": "additional_info_78"
    },
    {
        "id": 79,
        "lat": 41.174861,
        "long": -8.571326,
        "valid_address": "Cal\u00e7ada Ranha 5, 4350 Porto, Portugal",
        "timestamp": "2024-10-10T09:36:23",
        "source": "PORTO_FREE_WIFI",
        "pii_field_1": "pii_data_79",
        "pii_field_2": "secure_info_79",
        "non_pii_field_1": "non_pii_data_79",
        "non_pii_field_2": "additional_info_79"
    },
    {
        "id": 80,
        "lat": 41.129996,
        "long": -8.621631,
        "valid_address": "R. Bar\u00e3o do Corvo 1363, 4400-038 Vila Nova de Gaia, Portugal",
        "timestamp": "2024-10-11T13:17:18",
        "source": "PORTO_FREE_WIFI",
        "pii_field_1": "pii_data_80",
        "pii_field_2": "secure_info_80",
        "non_pii_field_1": "non_pii_data_80",
        "non_pii_field_2": "additional_info_80"
    },
    {
        "id": 81,
        "lat": 41.194363,
        "long": -8.590528,
        "valid_address": "Rua das Regadias 4, 4425-689 Pedrou\u00e7os, Portugal",
        "timestamp": "2024-10-27T14:12:23",
        "source": "PORTO_FREE_WIFI",
        "pii_field_1": "pii_data_81",
        "pii_field_2": "secure_info_81",
        "non_pii_field_1": "non_pii_data_81",
        "non_pii_field_2": "additional_info_81"
    },
    {
        "id": 82,
        "lat": 41.139106,
        "long": -8.67126,
        "valid_address": "48QH+JF Vila Nova de Gaia, Portugal",
        "timestamp": "2024-10-29T23:39:55",
        "source": "PORTO_FREE_WIFI",
        "pii_field_1": "pii_data_82",
        "pii_field_2": "secure_info_82",
        "non_pii_field_1": "non_pii_data_82",
        "non_pii_field_2": "additional_info_82"
    },
    {
        "id": 83,
        "lat": 41.11107,
        "long": -8.641763,
        "valid_address": "R. da Pena 174, 4405-778 Vila Nova de Gaia, Portugal",
        "timestamp": "2024-10-04T19:20:26",
        "source": "PORTO_FREE_WIFI",
        "pii_field_1": "pii_data_83",
        "pii_field_2": "secure_info_83",
        "non_pii_field_1": "non_pii_data_83",
        "non_pii_field_2": "additional_info_83"
    },
    {
        "id": 84,
        "lat": 41.170961,
        "long": -8.685482,
        "valid_address": "58C7+HV Porto park, 4100 Porto, Portugal",
        "timestamp": "2024-10-18T08:14:52",
        "source": "PORTO_FREE_WIFI",
        "pii_field_1": "pii_data_84",
        "pii_field_2": "secure_info_84",
        "non_pii_field_1": "non_pii_data_84",
        "non_pii_field_2": "additional_info_84"
    },
    {
        "id": 85,
        "lat": 41.107639,
        "long": -8.6144,
        "valid_address": "R. Pinhal Ruaz 119, 4405 Vila Nova de Gaia, Portugal",
        "timestamp": "2024-10-27T03:28:38",
        "source": "PORTO_FREE_WIFI",
        "pii_field_1": "pii_data_85",
        "pii_field_2": "secure_info_85",
        "non_pii_field_1": "non_pii_data_85",
        "non_pii_field_2": "additional_info_85"
    },
    {
        "id": 86,
        "lat": 41.101977,
        "long": -8.613033,
        "valid_address": "R. Junqueira de Cima 348, 4405-872 Vila Nova de Gaia, Portugal",
        "timestamp": "2024-10-10T12:53:08",
        "source": "PORTO_FREE_WIFI",
        "pii_field_1": "pii_data_86",
        "pii_field_2": "secure_info_86",
        "non_pii_field_1": "non_pii_data_86",
        "non_pii_field_2": "additional_info_86"
    },
    {
        "id": 87,
        "lat": 41.141809,
        "long": -8.624269,
        "valid_address": "R. da Pescaria 28, 4400-152 Vila Nova de Gaia, Portugal",
        "timestamp": "2024-10-22T07:22:09",
        "source": "PORTO_FREE_WIFI",
        "pii_field_1": "pii_data_87",
        "pii_field_2": "secure_info_87",
        "non_pii_field_1": "non_pii_data_87",
        "non_pii_field_2": "additional_info_87"
    },
    {
        "id": 88,
        "lat": 41.139185,
        "long": -8.607333,
        "valid_address": "R. do Casino da Ponte 127, 4430-033 Vila Nova de Gaia, Portugal",
        "timestamp": "2024-10-28T13:02:00",
        "source": "PORTO_FREE_WIFI",
        "pii_field_1": "pii_data_88",
        "pii_field_2": "secure_info_88",
        "non_pii_field_1": "non_pii_data_88",
        "non_pii_field_2": "additional_info_88"
    },
    {
        "id": 89,
        "lat": 41.124731,
        "long": -8.557347,
        "valid_address": "Tv. Conven\u00e7\u00e3o de Gramido 112, 4420-416 Valbom, Portugal",
        "timestamp": "2024-10-07T12:28:00",
        "source": "PORTO_FREE_WIFI",
        "pii_field_1": "pii_data_89",
        "pii_field_2": "secure_info_89",
        "non_pii_field_1": "non_pii_data_89",
        "non_pii_field_2": "additional_info_89"
    },
    {
        "id": 90,
        "lat": 41.150362,
        "long": -8.598646,
        "valid_address": "Av. de Fern\u00e3o de Magalh\u00e3es 7D, 4300 Porto, Portugal",
        "timestamp": "2024-10-27T05:08:34",
        "source": "PORTO_FREE_WIFI",
        "pii_field_1": "pii_data_90",
        "pii_field_2": "secure_info_90",
        "non_pii_field_1": "non_pii_data_90",
        "non_pii_field_2": "additional_info_90"
    },
    {
        "id": 91,
        "lat": 41.148256,
        "long": -8.679534,
        "valid_address": "48XC+85 Porto, Portugal",
        "timestamp": "2024-10-13T22:14:19",
        "source": "PORTO_FREE_WIFI",
        "pii_field_1": "pii_data_91",
        "pii_field_2": "secure_info_91",
        "non_pii_field_1": "non_pii_data_91",
        "non_pii_field_2": "additional_info_91"
    },
    {
        "id": 92,
        "lat": 41.116504,
        "long": -8.648718,
        "valid_address": "R. do Cerro 163, 4400 Canidelo, Portugal",
        "timestamp": "2024-10-27T23:47:26",
        "source": "PORTO_FREE_WIFI",
        "pii_field_1": "pii_data_92",
        "pii_field_2": "secure_info_92",
        "non_pii_field_1": "non_pii_data_92",
        "non_pii_field_2": "additional_info_92"
    },
    {
        "id": 93,
        "lat": 41.134339,
        "long": -8.61545,
        "valid_address": "R. do Bar\u00e3o de Forrester 412, 4400-034 Vila Nova de Gaia, Portugal",
        "timestamp": "2024-10-29T17:19:22",
        "source": "PORTO_FREE_WIFI",
        "pii_field_1": "pii_data_93",
        "pii_field_2": "secure_info_93",
        "non_pii_field_1": "non_pii_data_93",
        "non_pii_field_2": "additional_info_93"
    },
    {
        "id": 94,
        "lat": 41.195392,
        "long": -8.694471,
        "valid_address": "R. \u00d3scar da Silva 452F, 4450-337 Le\u00e7a da Palmeira, Portugal",
        "timestamp": "2024-10-28T09:25:14",
        "source": "PORTO_FREE_WIFI",
        "pii_field_1": "pii_data_94",
        "pii_field_2": "secure_info_94",
        "non_pii_field_1": "non_pii_data_94",
        "non_pii_field_2": "additional_info_94"
    },
    {
        "id": 95,
        "lat": 41.146672,
        "long": -8.642045,
        "valid_address": "Cais do Lugan 30, 4400-492 Vila Nova de Gaia, Portugal",
        "timestamp": "2024-10-02T12:51:46",
        "source": "PORTO_FREE_WIFI",
        "pii_field_1": "pii_data_95",
        "pii_field_2": "secure_info_95",
        "non_pii_field_1": "non_pii_data_95",
        "non_pii_field_2": "additional_info_95"
    },
    {
        "id": 96,
        "lat": 41.125236,
        "long": -8.6914,
        "valid_address": "48G5+3C Vila Nova de Gaia, Portugal",
        "timestamp": "2024-10-14T05:19:08",
        "source": "PORTO_FREE_WIFI",
        "pii_field_1": "pii_data_96",
        "pii_field_2": "secure_info_96",
        "non_pii_field_1": "non_pii_data_96",
        "non_pii_field_2": "additional_info_96"
    },
    {
        "id": 97,
        "lat": 41.189813,
        "long": -8.614443,
        "valid_address": "R. Santo Ant\u00f3nio do Telheiro 367, 4465 S\u00e3o Mamede de Infesta, Portugal",
        "timestamp": "2024-10-24T19:41:18",
        "source": "PORTO_FREE_WIFI",
        "pii_field_1": "pii_data_97",
        "pii_field_2": "secure_info_97",
        "non_pii_field_1": "non_pii_data_97",
        "non_pii_field_2": "additional_info_97"
    },
    {
        "id": 98,
        "lat": 41.138209,
        "long": -8.621817,
        "valid_address": "R. de Rei Ramiro 29, 4400-283 Vila Nova de Gaia, Portugal",
        "timestamp": "2024-10-01T17:51:47",
        "source": "PORTO_FREE_WIFI",
        "pii_field_1": "pii_data_98",
        "pii_field_2": "secure_info_98",
        "non_pii_field_1": "non_pii_data_98",
        "non_pii_field_2": "additional_info_98"
    },
    {
        "id": 99,
        "lat": 41.162376,
        "long": -8.609199,
        "valid_address": "R. da Constitui\u00e7\u00e3o 913, 4000 Porto, Portugal",
        "timestamp": "2024-10-11T07:41:52",
        "source": "PORTO_FREE_WIFI",
        "pii_field_1": "pii_data_99",
        "pii_field_2": "secure_info_99",
        "non_pii_field_1": "non_pii_data_99",
        "non_pii_field_2": "additional_info_99"
    },
    {
        "id": 100,
        "lat": 41.155717,
        "long": -8.688478,
        "valid_address": "5846+7J Porto, Portugal",
        "timestamp": "2024-10-24T07:23:42",
        "source": "PORTO_FREE_WIFI",
        "pii_field_1": "pii_data_100",
        "pii_field_2": "secure_info_100",
        "non_pii_field_1": "non_pii_data_100",
        "non_pii_field_2": "additional_info_100"
    }
]