[
    {
        "id": 1,
        "lat": 41.151216,
        "long": -8.588529,
        "valid_address": "R. Dr. Sousa \u00c1vides 72, 4300-487 Porto, Portugal",
        "timestamp": "2024-10-08T17:40:09",
        "source": "SCTP",
        "pii_field_1": "pii_data_1",
        "pii_field_2": "secure_info_1",
        "non_pii_field_1": "non_pii_data_1",
        "non_pii_field_2": "additional_info_1"
    },
    {
        "id": 2,
        "lat": 41.12562,
        "long": -8.586928,
        "valid_address": "Rampa Caminho Velho 217, 4430-345 Vila Nova de Gaia, Portugal",
        "timestamp": "2024-10-19T19:23:38",
        "source": "SCTP",
        "pii_field_1": "pii_data_2",
        "pii_field_2": "secure_info_2",
        "non_pii_field_1": "non_pii_data_2",
        "non_pii_field_2": "additional_info_2"
    },
    {
        "id": 3,
        "lat": 41.156845,
        "long": -8.574439,
        "valid_address": "R. Monte de Campanh\u00e3 11, 4300 Porto, Portugal",
        "timestamp": "2024-10-30T14:21:01",
        "source": "SCTP",
        "pii_field_1": "pii_data_3",
        "pii_field_2": "secure_info_3",
        "non_pii_field_1": "non_pii_data_3",
        "non_pii_field_2": "additional_info_3"
    },
    {
        "id": 4,
        "lat": 41.136282,
        "long": -8.652698,
        "valid_address": "R. Manuel Marques Gomes 868, 4400-496 Vila Nova de Gaia, Portugal",
        "timestamp": "2024-10-07T00:49:17",
        "source": "SCTP",
        "pii_field_1": "pii_data_4",
        "pii_field_2": "secure_info_4",
        "non_pii_field_1": "non_pii_data_4",
        "non_pii_field_2": "additional_info_4"
    },
    {
        "id": 5,
        "lat": 41.123499,
        "long": -8.633385,
        "valid_address": "R. Augusto Gomes 90, 4400-028 Vila Nova de Gaia, Portugal",
        "timestamp": "2024-10-23T13:28:02",
        "source": "SCTP",
        "pii_field_1": "pii_data_5",
        "pii_field_2": "secure_info_5",
        "non_pii_field_1": "non_pii_data_5",
        "non_pii_field_2": "additional_info_5"
    },
    {
        "id": 6,
        "lat": 41.164978,
        "long": -8.630868,
        "valid_address": "R. de Pedro Hispano 1040, 4250 Porto, Portugal",
        "timestamp": "2024-10-21T15:25:33",
        "source": "SCTP",
        "pii_field_1": "pii_data_6",
        "pii_field_2": "secure_info_6",
        "non_pii_field_1": "non_pii_data_6",
        "non_pii_field_2": "additional_info_6"
    },
    {
        "id": 7,
        "lat": 41.165063,
        "long": -8.622031,
        "valid_address": "R. de Ant\u00f3nio Enes 97, 4250-495 Porto, Portugal",
        "timestamp": "2024-10-03T22:40:59",
        "source": "SCTP",
        "pii_field_1": "pii_data_7",
        "pii_field_2": "secure_info_7",
        "non_pii_field_1": "non_pii_data_7",
        "non_pii_field_2": "additional_info_7"
    },
    {
        "id": 8,
        "lat": 41.158285,
        "long": -8.648384,
        "valid_address": "R. Orfe\u00e3o do Porto 392, 4150-798 Porto, Portugal",
        "timestamp": "2024-10-03T03:52:25",
        "source": "SCTP",
        "pii_field_1": "pii_data_8",
        "pii_field_2": "secure_info_8",
        "non_pii_field_1": "non_pii_data_8",
        "non_pii_field_2": "additional_info_8"
    },
    {
        "id": 9,
        "lat": 41.142084,
        "long": -8.569313,
        "valid_address": "R. Padre Manuel Barbosa Pereira 245, 4420-524 Valbom, Portugal",
        "timestamp": "2024-10-25T17:21:07",
        "source": "SCTP",
        "pii_field_1": "pii_data_9",
        "pii_field_2": "secure_info_9",
        "non_pii_field_1": "non_pii_data_9",
        "non_pii_field_2": "additional_info_9"
    },
    {
        "id": 10,
        "lat": 41.171873,
        "long": -8.569958,
        "valid_address": "Estr. da Circunvala\u00e7\u00e3o 3737, 4350-113 Porto, Portugal",
        "timestamp": "2024-10-25T03:50:38",
        "source": "SCTP",
        "pii_field_1": "pii_data_10",
        "pii_field_2": "secure_info_10",
        "non_pii_field_1": "non_pii_data_10",
        "non_pii_field_2": "additional_info_10"
    },
    {
        "id": 11,
        "lat": 41.132909,
        "long": -8.633506,
        "valid_address": "Tv. de Campos 2B, 4400 Vila Nova de Gaia, Portugal",
        "timestamp": "2024-10-11T04:58:08",
        "source": "SCTP",
        "pii_field_1": "pii_data_11",
        "pii_field_2": "secure_info_11",
        "non_pii_field_1": "non_pii_data_11",
        "non_pii_field_2": "additional_info_11"
    },
    {
        "id": 12,
        "lat": 41.135593,
        "long": -8.592759,
        "valid_address": "4CP4+6V Vila Nova de Gaia, Portugal",
        "timestamp": "2024-10-20T16:32:50",
        "source": "SCTP",
        "pii_field_1": "pii_data_12",
        "pii_field_2": "secure_info_12",
        "non_pii_field_1": "non_pii_data_12",
        "non_pii_field_2": "additional_info_12"
    },
    {
        "id": 13,
        "lat": 41.124068,
        "long": -8.579059,
        "valid_address": "R. Pinheiro 207C2, 4430-491 Oliveira do Douro, Portugal",
        "timestamp": "2024-10-10T15:14:01",
        "source": "SCTP",
        "pii_field_1": "pii_data_13",
        "pii_field_2": "secure_info_13",
        "non_pii_field_1": "non_pii_data_13",
        "non_pii_field_2": "additional_info_13"
    },
    {
        "id": 14,
        "lat": 41.145486,
        "long": -8.646005,
        "valid_address": "R. da Praia 7, 4400-603 Vila Nova de Gaia, Portugal",
        "timestamp": "2024-10-13T07:51:20",
        "source": "SCTP",
        "pii_field_1": "pii_data_14",
        "pii_field_2": "secure_info_14",
        "non_pii_field_1": "non_pii_data_14",
        "non_pii_field_2": "additional_info_14"
    },
    {
        "id": 15,
        "lat": 41.169185,
        "long": -8.591957,
        "valid_address": "R. Pereira Reis 43, 4200-226 Porto, Portugal",
        "timestamp": "2024-10-10T12:25:33",
        "source": "SCTP",
        "pii_field_1": "pii_data_15",
        "pii_field_2": "secure_info_15",
        "non_pii_field_1": "non_pii_data_15",
        "non_pii_field_2": "additional_info_15"
    },
    {
        "id": 16,
        "lat": 41.174258,
        "long": -8.589424,
        "valid_address": "R. Jo\u00e3o L\u00facio Azevedo 54, 4200-476 Porto, Portugal",
        "timestamp": "2024-10-30T19:03:48",
        "source": "SCTP",
        "pii_field_1": "pii_data_16",
        "pii_field_2": "secure_info_16",
        "non_pii_field_1": "non_pii_data_16",
        "non_pii_field_2": "additional_info_16"
    },
    {
        "id": 17,
        "lat": 41.172973,
        "long": -8.644312,
        "valid_address": "R. Eng. Ferreira Dias 469, 4250 Porto, Portugal",
        "timestamp": "2024-10-29T14:46:02",
        "source": "SCTP",
        "pii_field_1": "pii_data_17",
        "pii_field_2": "secure_info_17",
        "non_pii_field_1": "non_pii_data_17",
        "non_pii_field_2": "additional_info_17"
    },
    {
        "id": 18,
        "lat": 41.150436,
        "long": -8.624094,
        "valid_address": "Largo da Maternidade de J\u00falio Dinis 45, 4050-014 Porto, Portugal",
        "timestamp": "2024-10-10T15:11:03",
        "source": "SCTP",
        "pii_field_1": "pii_data_18",
        "pii_field_2": "secure_info_18",
        "non_pii_field_1": "non_pii_data_18",
        "non_pii_field_2": "additional_info_18"
    },
    {
        "id": 19,
        "lat": 41.125938,
        "long": -8.629027,
        "valid_address": "R. Lavouras 319, 4400 Vila Nova de Gaia, Portugal",
        "timestamp": "2024-10-30T23:28:17",
        "source": "SCTP",
        "pii_field_1": "pii_data_19",
        "pii_field_2": "secure_info_19",
        "non_pii_field_1": "non_pii_data_19",
        "non_pii_field_2": "additional_info_19"
    },
    {
        "id": 20,
        "lat": 41.129431,
        "long": -8.593307,
        "valid_address": "Vereda Bolh\u00e3o 9, 4430-024 Oliveira do Douro, Portugal",
        "timestamp": "2024-10-23T14:10:07",
        "source": "SCTP",
        "pii_field_1": "pii_data_20",
        "pii_field_2": "secure_info_20",
        "non_pii_field_1": "non_pii_data_20",
        "non_pii_field_2": "additional_info_20"
    },
    {
        "id": 21,
        "lat": 41.120353,
        "long": -8.574161,
        "valid_address": "Praceta Dr. Ant\u00f3nio Ribeiro da Costa 151, 4430-414 Oliveira do Douro, Portugal",
        "timestamp": "2024-10-10T04:44:56",
        "source": "SCTP",
        "pii_field_1": "pii_data_21",
        "pii_field_2": "secure_info_21",
        "non_pii_field_1": "non_pii_data_21",
        "non_pii_field_2": "additional_info_21"
    },
    {
        "id": 22,
        "lat": 41.141703,
        "long": -8.655946,
        "valid_address": "48RV+MJ Vila Nova de Gaia, Portugal",
        "timestamp": "2024-10-24T04:39:14",
        "source": "SCTP",
        "pii_field_1": "pii_data_22",
        "pii_field_2": "secure_info_22",
        "non_pii_field_1": "non_pii_data_22",
        "non_pii_field_2": "additional_info_22"
    },
    {
        "id": 23,
        "lat": 41.150425,
        "long": -8.646633,
        "valid_address": "R. da Mocidade de Arr\u00e1bida 246, 4150 Porto, Portugal",
        "timestamp": "2024-10-02T07:13:23",
        "source": "SCTP",
        "pii_field_1": "pii_data_23",
        "pii_field_2": "secure_info_23",
        "non_pii_field_1": "non_pii_data_23",
        "non_pii_field_2": "additional_info_23"
    },
    {
        "id": 24,
        "lat": 41.167364,
        "long": -8.640108,
        "valid_address": "Rua do Padre Am\u00e9rico 137, 4100-047 Porto, Portugal",
        "timestamp": "2024-10-16T05:39:51",
        "source": "SCTP",
        "pii_field_1": "pii_data_24",
        "pii_field_2": "secure_info_24",
        "non_pii_field_1": "non_pii_data_24",
        "non_pii_field_2": "additional_info_24"
    },
    {
        "id": 25,
        "lat": 41.174591,
        "long": -8.569401,
        "valid_address": "Rua da Ranha 39, 4350 Porto, Portugal",
        "timestamp": "2024-10-26T14:43:50",
        "source": "SCTP",
        "pii_field_1": "pii_data_25",
        "pii_field_2": "secure_info_25",
        "non_pii_field_1": "non_pii_data_25",
        "non_pii_field_2": "additional_info_25"
    },
    {
        "id": 26,
        "lat": 41.137783,
        "long": -8.569005,
        "valid_address": "R. Belavista 145, 4420-360 Valbom, Portugal",
        "timestamp": "2024-10-27T15:32:15",
        "source": "SCTP",
        "pii_field_1": "pii_data_26",
        "pii_field_2": "secure_info_26",
        "non_pii_field_1": "non_pii_data_26",
        "non_pii_field_2": "additional_info_26"
    },
    {
        "id": 27,
        "lat": 41.135522,
        "long": -8.584549,
        "valid_address": "Tv. do Regato 15, 4430 Oliveira do Douro, Portugal",
        "timestamp": "2024-10-17T22:15:20",
        "source": "SCTP",
        "pii_field_1": "pii_data_27",
        "pii_field_2": "secure_info_27",
        "non_pii_field_1": "non_pii_data_27",
        "non_pii_field_2": "additional_info_27"
    },
    {
        "id": 28,
        "lat": 41.150678,
        "long": -8.657319,
        "valid_address": "R. de Pedro Escobar 62A, 4150-596 Porto, Portugal",
        "timestamp": "2024-10-15T08:26:09",
        "source": "SCTP",
        "pii_field_1": "pii_data_28",
        "pii_field_2": "secure_info_28",
        "non_pii_field_1": "non_pii_data_28",
        "non_pii_field_2": "additional_info_28"
    },
    {
        "id": 29,
        "lat": 41.161531,
        "long": -8.578906,
        "valid_address": "R. Chaves de Oliveira 165, 4350 Porto, Portugal",
        "timestamp": "2024-10-28T12:24:02",
        "source": "SCTP",
        "pii_field_1": "pii_data_29",
        "pii_field_2": "secure_info_29",
        "non_pii_field_1": "non_pii_data_29",
        "non_pii_field_2": "additional_info_29"
    },
    {
        "id": 30,
        "lat": 41.165376,
        "long": -8.636466,
        "valid_address": "Francos, 4250 Porto, Portugal",
        "timestamp": "2024-10-13T19:42:36",
        "source": "SCTP",
        "pii_field_1": "pii_data_30",
        "pii_field_2": "secure_info_30",
        "non_pii_field_1": "non_pii_data_30",
        "non_pii_field_2": "additional_info_30"
    },
    {
        "id": 31,
        "lat": 41.175839,
        "long": -8.651768,
        "valid_address": "Man.p.azevedo 3, 4100-190 Porto, Portugal",
        "timestamp": "2024-10-25T20:03:36",
        "source": "SCTP",
        "pii_field_1": "pii_data_31",
        "pii_field_2": "secure_info_31",
        "non_pii_field_1": "non_pii_data_31",
        "non_pii_field_2": "additional_info_31"
    },
    {
        "id": 32,
        "lat": 41.1532,
        "long": -8.570785,
        "valid_address": "Rua do Lagarteiro 239, 4300-286 Porto, Portugal",
        "timestamp": "2024-10-17T23:23:20",
        "source": "SCTP",
        "pii_field_1": "pii_data_32",
        "pii_field_2": "secure_info_32",
        "non_pii_field_1": "non_pii_data_32",
        "non_pii_field_2": "additional_info_32"
    },
    {
        "id": 33,
        "lat": 41.139114,
        "long": -8.655448,
        "valid_address": "R. da Praia 8362, 4400 Vila Nova de Gaia, Portugal",
        "timestamp": "2024-10-12T18:29:48",
        "source": "SCTP",
        "pii_field_1": "pii_data_33",
        "pii_field_2": "secure_info_33",
        "non_pii_field_1": "non_pii_data_33",
        "non_pii_field_2": "additional_info_33"
    },
    {
        "id": 34,
        "lat": 41.124591,
        "long": -8.62201,
        "valid_address": "Tv. Jos\u00e9 Mariani 13, 4400-676 Vila Nova de Gaia, Portugal",
        "timestamp": "2024-10-02T22:43:55",
        "source": "SCTP",
        "pii_field_1": "pii_data_34",
        "pii_field_2": "secure_info_34",
        "non_pii_field_1": "non_pii_data_34",
        "non_pii_field_2": "additional_info_34"
    },
    {
        "id": 35,
        "lat": 41.138818,
        "long": -8.601503,
        "valid_address": "R. 2 14, 4430-999 Vila Nova de Gaia, Portugal",
        "timestamp": "2024-10-04T07:57:42",
        "source": "SCTP",
        "pii_field_1": "pii_data_35",
        "pii_field_2": "secure_info_35",
        "non_pii_field_1": "non_pii_data_35",
        "non_pii_field_2": "additional_info_35"
    },
    {
        "id": 36,
        "lat": 41.153526,
        "long": -8.589063,
        "valid_address": "R. de Justino Teixeira 601, 4300-280 Porto, Portugal",
        "timestamp": "2024-10-20T14:17:37",
        "source": "SCTP",
        "pii_field_1": "pii_data_36",
        "pii_field_2": "secure_info_36",
        "non_pii_field_1": "non_pii_data_36",
        "non_pii_field_2": "additional_info_36"
    },
    {
        "id": 37,
        "lat": 41.16749,
        "long": -8.594302,
        "valid_address": "R. Dr. Carteado Mena 53, 4200-224 Porto, Portugal",
        "timestamp": "2024-10-21T12:25:53",
        "source": "SCTP",
        "pii_field_1": "pii_data_37",
        "pii_field_2": "secure_info_37",
        "non_pii_field_1": "non_pii_data_37",
        "non_pii_field_2": "additional_info_37"
    },
    {
        "id": 38,
        "lat": 41.137007,
        "long": -8.57429,
        "valid_address": "4CPG+R7 Vila Nova de Gaia, Portugal",
        "timestamp": "2024-10-06T21:07:44",
        "source": "SCTP",
        "pii_field_1": "pii_data_38",
        "pii_field_2": "secure_info_38",
        "non_pii_field_1": "non_pii_data_38",
        "non_pii_field_2": "additional_info_38"
    },
    {
        "id": 39,
        "lat": 41.144001,
        "long": -8.618445,
        "valid_address": "Miradouro do Passeio das Virtudes, Passeio das Virtudes 30, 4050-629 Porto, Portugal",
        "timestamp": "2024-10-16T21:18:20",
        "source": "SCTP",
        "pii_field_1": "pii_data_39",
        "pii_field_2": "secure_info_39",
        "non_pii_field_1": "non_pii_data_39",
        "non_pii_field_2": "additional_info_39"
    },
    {
        "id": 40,
        "lat": 41.125654,
        "long": -8.59549,
        "valid_address": "R. Dr. M\u00e1rio Cal Brand\u00e3o 49, 4430-999 Vila Nova de Gaia, Portugal",
        "timestamp": "2024-10-22T02:38:11",
        "source": "SCTP",
        "pii_field_1": "pii_data_40",
        "pii_field_2": "secure_info_40",
        "non_pii_field_1": "non_pii_data_40",
        "non_pii_field_2": "additional_info_40"
    },
    {
        "id": 41,
        "lat": 41.16342,
        "long": -8.643487,
        "valid_address": "R. de O Primeiro de Janeiro 323, 4100-367 Porto, Portugal",
        "timestamp": "2024-10-22T21:01:05",
        "source": "SCTP",
        "pii_field_1": "pii_data_41",
        "pii_field_2": "secure_info_41",
        "non_pii_field_1": "non_pii_data_41",
        "non_pii_field_2": "additional_info_41"
    },
    {
        "id": 42,
        "lat": 41.175684,
        "long": -8.61453,
        "valid_address": "R. do Eng. Carlos Amarante 49, 4200-060 Porto, Portugal",
        "timestamp": "2024-10-16T11:25:10",
        "source": "SCTP",
        "pii_field_1": "pii_data_42",
        "pii_field_2": "secure_info_42",
        "non_pii_field_1": "non_pii_data_42",
        "non_pii_field_2": "additional_info_42"
    },
    {
        "id": 43,
        "lat": 41.174775,
        "long": -8.574354,
        "valid_address": "R. Nau Vit\u00f3ria 1389, 4350 Porto, Portugal",
        "timestamp": "2024-10-28T09:15:33",
        "source": "SCTP",
        "pii_field_1": "pii_data_43",
        "pii_field_2": "secure_info_43",
        "non_pii_field_1": "non_pii_data_43",
        "non_pii_field_2": "additional_info_43"
    },
    {
        "id": 44,
        "lat": 41.122151,
        "long": -8.623262,
        "valid_address": "R. Jos\u00e9 Domingos Gon\u00e7alves Oliveira 60, 4400-014 Vila Nova de Gaia, Portugal",
        "timestamp": "2024-10-05T14:30:23",
        "source": "SCTP",
        "pii_field_1": "pii_data_44",
        "pii_field_2": "secure_info_44",
        "non_pii_field_1": "non_pii_data_44",
        "non_pii_field_2": "additional_info_44"
    },
    {
        "id": 45,
        "lat": 41.163562,
        "long": -8.599784,
        "valid_address": "R. do Lima 28, 4200-024 Porto, Portugal",
        "timestamp": "2024-10-18T03:49:05",
        "source": "SCTP",
        "pii_field_1": "pii_data_45",
        "pii_field_2": "secure_info_45",
        "non_pii_field_1": "non_pii_data_45",
        "non_pii_field_2": "additional_info_45"
    },
    {
        "id": 46,
        "lat": 41.138573,
        "long": -8.648061,
        "valid_address": "Rua de Bustes 283, 4400-394 Vila Nova de Gaia, Portugal",
        "timestamp": "2024-10-22T08:46:58",
        "source": "SCTP",
        "pii_field_1": "pii_data_46",
        "pii_field_2": "secure_info_46",
        "non_pii_field_1": "non_pii_data_46",
        "non_pii_field_2": "additional_info_46"
    },
    {
        "id": 47,
        "lat": 41.165475,
        "long": -8.578798,
        "valid_address": "Contumil, 4350 Porto, Portugal",
        "timestamp": "2024-10-11T14:57:41",
        "source": "SCTP",
        "pii_field_1": "pii_data_47",
        "pii_field_2": "secure_info_47",
        "non_pii_field_1": "non_pii_data_47",
        "non_pii_field_2": "additional_info_47"
    },
    {
        "id": 48,
        "lat": 41.13691,
        "long": -8.595392,
        "valid_address": "R. Silva Tapada 200, 4430-999 Vila Nova de Gaia, Portugal",
        "timestamp": "2024-10-08T22:45:50",
        "source": "SCTP",
        "pii_field_1": "pii_data_48",
        "pii_field_2": "secure_info_48",
        "non_pii_field_1": "non_pii_data_48",
        "non_pii_field_2": "additional_info_48"
    },
    {
        "id": 49,
        "lat": 41.165353,
        "long": -8.575569,
        "valid_address": "R. Beata Dona Mafalda 89, 4350 Porto, Portugal",
        "timestamp": "2024-10-02T10:38:42",
        "source": "SCTP",
        "pii_field_1": "pii_data_49",
        "pii_field_2": "secure_info_49",
        "non_pii_field_1": "non_pii_data_49",
        "non_pii_field_2": "additional_info_49"
    },
    {
        "id": 50,
        "lat": 41.12771,
        "long": -8.604322,
        "valid_address": "R. Particular Hon\u00f3rio Tavares Costa 94, 4430-999 Vila Nova de Gaia, Portugal",
        "timestamp": "2024-10-13T16:43:36",
        "source": "SCTP",
        "pii_field_1": "pii_data_50",
        "pii_field_2": "secure_info_50",
        "non_pii_field_1": "non_pii_data_50",
        "non_pii_field_2": "additional_info_50"
    },
    {
        "id": 51,
        "lat": 41.195396,
        "long": -8.666296,
        "valid_address": "Av. Joaquim Neves dos Santos 1136, 4460-125 Guif\u00f5es, Portugal",
        "timestamp": "2024-10-24T02:59:27",
        "source": "SCTP",
        "pii_field_1": "pii_data_51",
        "pii_field_2": "secure_info_51",
        "non_pii_field_1": "non_pii_data_51",
        "non_pii_field_2": "additional_info_51"
    },
    {
        "id": 52,
        "lat": 41.132398,
        "long": -8.611412,
        "valid_address": "R. C\u00e2ndido dos Reis 520, 4430-999 Vila Nova de Gaia, Portugal",
        "timestamp": "2024-10-17T06:54:35",
        "source": "SCTP",
        "pii_field_1": "pii_data_52",
        "pii_field_2": "secure_info_52",
        "non_pii_field_1": "non_pii_data_52",
        "non_pii_field_2": "additional_info_52"
    },
    {
        "id": 53,
        "lat": 41.117429,
        "long": -8.583974,
        "valid_address": "Zona Industrial dos Arcos do Sard\u00e3o 4470, 4430-434 Vila Nova de Gaia, Portugal",
        "timestamp": "2024-10-27T10:21:55",
        "source": "SCTP",
        "pii_field_1": "pii_data_53",
        "pii_field_2": "secure_info_53",
        "non_pii_field_1": "non_pii_data_53",
        "non_pii_field_2": "additional_info_53"
    },
    {
        "id": 54,
        "lat": 41.132179,
        "long": -8.619538,
        "valid_address": "R. Dona Leonor de Freitas 167, 4400-123 Vila Nova de Gaia, Portugal",
        "timestamp": "2024-10-19T20:55:20",
        "source": "SCTP",
        "pii_field_1": "pii_data_54",
        "pii_field_2": "secure_info_54",
        "non_pii_field_1": "non_pii_data_54",
        "non_pii_field_2": "additional_info_54"
    },
    {
        "id": 55,
        "lat": 41.105479,
        "long": -8.644786,
        "valid_address": "R. da Lavoura 183, 4405 Vila Nova de Gaia, Portugal",
        "timestamp": "2024-10-23T11:28:18",
        "source": "SCTP",
        "pii_field_1": "pii_data_55",
        "pii_field_2": "secure_info_55",
        "non_pii_field_1": "non_pii_data_55",
        "non_pii_field_2": "additional_info_55"
    },
    {
        "id": 56,
        "lat": 41.146896,
        "long": -8.691166,
        "valid_address": "48W5+QG Porto, Portugal",
        "timestamp": "2024-10-17T14:02:16",
        "source": "SCTP",
        "pii_field_1": "pii_data_56",
        "pii_field_2": "secure_info_56",
        "non_pii_field_1": "non_pii_data_56",
        "non_pii_field_2": "additional_info_56"
    },
    {
        "id": 57,
        "lat": 41.18898,
        "long": -8.634706,
        "valid_address": "R. Nova dos Fogueteiros 391, 4460-724 Cust\u00f3ias, Portugal",
        "timestamp": "2024-10-13T16:18:27",
        "source": "SCTP",
        "pii_field_1": "pii_data_57",
        "pii_field_2": "secure_info_57",
        "non_pii_field_1": "non_pii_data_57",
        "non_pii_field_2": "additional_info_57"
    },
    {
        "id": 58,
        "lat": 41.118921,
        "long": -8.65207,
        "valid_address": "R. Sobreiro 151, 4400-590 Canidelo, Portugal",
        "timestamp": "2024-10-10T01:04:21",
        "source": "SCTP",
        "pii_field_1": "pii_data_58",
        "pii_field_2": "secure_info_58",
        "non_pii_field_1": "non_pii_data_58",
        "non_pii_field_2": "additional_info_58"
    },
    {
        "id": 59,
        "lat": 41.155223,
        "long": -8.613153,
        "valid_address": "Pra\u00e7a da Rep\u00fablica 125, 4000 Porto, Portugal",
        "timestamp": "2024-10-14T09:39:43",
        "source": "SCTP",
        "pii_field_1": "pii_data_59",
        "pii_field_2": "secure_info_59",
        "non_pii_field_1": "non_pii_data_59",
        "non_pii_field_2": "additional_info_59"
    },
    {
        "id": 60,
        "lat": 41.148251,
        "long": -8.653318,
        "valid_address": "Fluvial, 4150 Porto, Portugal",
        "timestamp": "2024-10-21T21:01:54",
        "source": "SCTP",
        "pii_field_1": "pii_data_60",
        "pii_field_2": "secure_info_60",
        "non_pii_field_1": "non_pii_data_60",
        "non_pii_field_2": "additional_info_60"
    },
    {
        "id": 61,
        "lat": 41.115997,
        "long": -8.591226,
        "valid_address": "Tv. Ferreira de Castro 115, 4430 Vila Nova de Gaia, Portugal",
        "timestamp": "2024-10-23T03:30:55",
        "source": "SCTP",
        "pii_field_1": "pii_data_61",
        "pii_field_2": "secure_info_61",
        "non_pii_field_1": "non_pii_data_61",
        "non_pii_field_2": "additional_info_61"
    },
    {
        "id": 62,
        "lat": 41.150237,
        "long": -8.605689,
        "valid_address": "R. de Santa Catarina 459, 4000-212 Porto, Portugal",
        "timestamp": "2024-10-26T06:52:33",
        "source": "SCTP",
        "pii_field_1": "pii_data_62",
        "pii_field_2": "secure_info_62",
        "non_pii_field_1": "non_pii_data_62",
        "non_pii_field_2": "additional_info_62"
    },
    {
        "id": 63,
        "lat": 41.11654,
        "long": -8.594526,
        "valid_address": "Av. Vasco da Gama 1410, 4430-247 Vila Nova de Gaia, Portugal",
        "timestamp": "2024-10-05T09:34:29",
        "source": "SCTP",
        "pii_field_1": "pii_data_63",
        "pii_field_2": "secure_info_63",
        "non_pii_field_1": "non_pii_data_63",
        "non_pii_field_2": "additional_info_63"
    },
    {
        "id": 64,
        "lat": 41.154612,
        "long": -8.686459,
        "valid_address": "5837+RC Porto, Portugal",
        "timestamp": "2024-10-01T13:07:11",
        "source": "SCTP",
        "pii_field_1": "pii_data_64",
        "pii_field_2": "secure_info_64",
        "non_pii_field_1": "non_pii_data_64",
        "non_pii_field_2": "additional_info_64"
    },
    {
        "id": 65,
        "lat": 41.167239,
        "long": -8.593933,
        "valid_address": "Rua de Costa Cabral 845, 4200-501 Porto, Portugal",
        "timestamp": "2024-10-03T06:27:53",
        "source": "SCTP",
        "pii_field_1": "pii_data_65",
        "pii_field_2": "secure_info_65",
        "non_pii_field_1": "non_pii_data_65",
        "non_pii_field_2": "additional_info_65"
    },
    {
        "id": 66,
        "lat": 41.191411,
        "long": -8.692307,
        "valid_address": "Quinta de Santiago, 4450 Le\u00e7a da Palmeira, Portugal",
        "timestamp": "2024-10-20T21:00:37",
        "source": "SCTP",
        "pii_field_1": "pii_data_66",
        "pii_field_2": "secure_info_66",
        "non_pii_field_1": "non_pii_data_66",
        "non_pii_field_2": "additional_info_66"
    },
    {
        "id": 67,
        "lat": 41.151704,
        "long": -8.622332,
        "valid_address": "Rua da Maternidade 29, 4050-370 Porto, Portugal",
        "timestamp": "2024-10-14T04:19:43",
        "source": "SCTP",
        "pii_field_1": "pii_data_67",
        "pii_field_2": "secure_info_67",
        "non_pii_field_1": "non_pii_data_67",
        "non_pii_field_2": "additional_info_67"
    },
    {
        "id": 68,
        "lat": 41.158804,
        "long": -8.623857,
        "valid_address": "Rua de Oliveira Monteiro 377, 4050-459 Porto, Portugal",
        "timestamp": "2024-10-23T19:14:49",
        "source": "SCTP",
        "pii_field_1": "pii_data_68",
        "pii_field_2": "secure_info_68",
        "non_pii_field_1": "non_pii_data_68",
        "non_pii_field_2": "additional_info_68"
    },
    {
        "id": 69,
        "lat": 41.142269,
        "long": -8.596905,
        "valid_address": "Rua de S. Victor 58, 4300 Porto, Portugal",
        "timestamp": "2024-10-30T20:42:58",
        "source": "SCTP",
        "pii_field_1": "pii_data_69",
        "pii_field_2": "secure_info_69",
        "non_pii_field_1": "non_pii_data_69",
        "non_pii_field_2": "additional_info_69"
    },
    {
        "id": 70,
        "lat": 41.17657,
        "long": -8.690435,
        "valid_address": "R. Sousa Aroso 31, 4450-208 Matosinhos, Portugal",
        "timestamp": "2024-10-10T11:45:35",
        "source": "SCTP",
        "pii_field_1": "pii_data_70",
        "pii_field_2": "secure_info_70",
        "non_pii_field_1": "non_pii_data_70",
        "non_pii_field_2": "additional_info_70"
    },
    {
        "id": 71,
        "lat": 41.196747,
        "long": -8.661961,
        "valid_address": "R. Gon\u00e7alo Sintra 67, 4460 Guif\u00f5es, Portugal",
        "timestamp": "2024-10-02T11:20:09",
        "source": "SCTP",
        "pii_field_1": "pii_data_71",
        "pii_field_2": "secure_info_71",
        "non_pii_field_1": "non_pii_data_71",
        "non_pii_field_2": "additional_info_71"
    },
    {
        "id": 72,
        "lat": 41.101657,
        "long": -8.5633,
        "valid_address": "Av. Vasco da Gama 3517, 4430-249 Vila Nova de Gaia, Portugal",
        "timestamp": "2024-10-05T00:38:27",
        "source": "SCTP",
        "pii_field_1": "pii_data_72",
        "pii_field_2": "secure_info_72",
        "non_pii_field_1": "non_pii_data_72",
        "non_pii_field_2": "additional_info_72"
    },
    {
        "id": 73,
        "lat": 41.122034,
        "long": -8.647627,
        "valid_address": "Beco Paniceiro 122, 4400 Canidelo, Portugal",
        "timestamp": "2024-10-06T16:36:03",
        "source": "SCTP",
        "pii_field_1": "pii_data_73",
        "pii_field_2": "secure_info_73",
        "non_pii_field_1": "non_pii_data_73",
        "non_pii_field_2": "additional_info_73"
    },
    {
        "id": 74,
        "lat": 41.119067,
        "long": -8.630926,
        "valid_address": "R. das Matas 288, 4400 Vila Nova de Gaia, Portugal",
        "timestamp": "2024-10-10T23:46:35",
        "source": "SCTP",
        "pii_field_1": "pii_data_74",
        "pii_field_2": "secure_info_74",
        "non_pii_field_1": "non_pii_data_74",
        "non_pii_field_2": "additional_info_74"
    },
    {
        "id": 75,
        "lat": 41.172236,
        "long": -8.658374,
        "valid_address": "R. das Amendoeiras 15, 4100-026 Porto, Portugal",
        "timestamp": "2024-10-16T03:48:58",
        "source": "SCTP",
        "pii_field_1": "pii_data_75",
        "pii_field_2": "secure_info_75",
        "non_pii_field_1": "non_pii_data_75",
        "non_pii_field_2": "additional_info_75"
    },
    {
        "id": 76,
        "lat": 41.115827,
        "long": -8.637511,
        "valid_address": "Tv. Passadouro C9, 4405 Vila Nova de Gaia, Portugal",
        "timestamp": "2024-10-04T19:55:01",
        "source": "SCTP",
        "pii_field_1": "pii_data_76",
        "pii_field_2": "secure_info_76",
        "non_pii_field_1": "non_pii_data_76",
        "non_pii_field_2": "additional_info_76"
    },
    {
        "id": 77,
        "lat": 41.186017,
        "long": -8.622356,
        "valid_address": "R. Tronco, 4465 S\u00e3o Mamede de Infesta, Portugal",
        "timestamp": "2024-10-13T01:30:12",
        "source": "SCTP",
        "pii_field_1": "pii_data_77",
        "pii_field_2": "secure_info_77",
        "non_pii_field_1": "non_pii_data_77",
        "non_pii_field_2": "additional_info_77"
    },
    {
        "id": 78,
        "lat": 41.157018,
        "long": -8.641369,
        "valid_address": "R. de Ant\u00f3nio Cardoso 332, 4150-742 Porto, Portugal",
        "timestamp": "2024-10-04T03:46:08",
        "source": "SCTP",
        "pii_field_1": "pii_data_78",
        "pii_field_2": "secure_info_78",
        "non_pii_field_1": "non_pii_data_78",
        "non_pii_field_2": "additional_info_78"
    },
    {
        "id": 79,
        "lat": 41.186164,
        "long": -8.587042,
        "valid_address": "R. Ant\u00f3nio Feliciano de Castilho 749, 4425-617 Pedrou\u00e7os, Portugal",
        "timestamp": "2024-10-17T06:14:53",
        "source": "SCTP",
        "pii_field_1": "pii_data_79",
        "pii_field_2": "secure_info_79",
        "non_pii_field_1": "non_pii_data_79",
        "non_pii_field_2": "additional_info_79"
    },
    {
        "id": 80,
        "lat": 41.192144,
        "long": -8.645038,
        "valid_address": "Tv. Barrosas 65, 4460-282 Cust\u00f3ias, Portugal",
        "timestamp": "2024-10-21T00:09:33",
        "source": "SCTP",
        "pii_field_1": "pii_data_80",
        "pii_field_2": "secure_info_80",
        "non_pii_field_1": "non_pii_data_80",
        "non_pii_field_2": "additional_info_80"
    },
    {
        "id": 81,
        "lat": 41.131038,
        "long": -8.664643,
        "valid_address": "R. Estamparia de Lavadores 93, 4400-454 Vila Nova de Gaia, Portugal",
        "timestamp": "2024-10-27T01:56:26",
        "source": "SCTP",
        "pii_field_1": "pii_data_81",
        "pii_field_2": "secure_info_81",
        "non_pii_field_1": "non_pii_data_81",
        "non_pii_field_2": "additional_info_81"
    },
    {
        "id": 82,
        "lat": 41.143732,
        "long": -8.660783,
        "valid_address": "48VQ+FM Porto, Portugal",
        "timestamp": "2024-10-30T12:10:29",
        "source": "SCTP",
        "pii_field_1": "pii_data_82",
        "pii_field_2": "secure_info_82",
        "non_pii_field_1": "non_pii_data_82",
        "non_pii_field_2": "additional_info_82"
    },
    {
        "id": 83,
        "lat": 41.133755,
        "long": -8.554798,
        "valid_address": "4CMW+G3 Valbom, Portugal",
        "timestamp": "2024-10-18T01:32:07",
        "source": "SCTP",
        "pii_field_1": "pii_data_83",
        "pii_field_2": "secure_info_83",
        "non_pii_field_1": "non_pii_data_83",
        "non_pii_field_2": "additional_info_83"
    },
    {
        "id": 84,
        "lat": 41.146501,
        "long": -8.584192,
        "valid_address": "R. do Freixo 1448, 4300-352 Porto, Portugal",
        "timestamp": "2024-10-29T16:41:28",
        "source": "SCTP",
        "pii_field_1": "pii_data_84",
        "pii_field_2": "secure_info_84",
        "non_pii_field_1": "non_pii_data_84",
        "non_pii_field_2": "additional_info_84"
    },
    {
        "id": 85,
        "lat": 41.165121,
        "long": -8.573317,
        "valid_address": "R. Nat\u00e1lia Correia 122, 4350 Porto, Portugal",
        "timestamp": "2024-10-13T00:52:41",
        "source": "SCTP",
        "pii_field_1": "pii_data_85",
        "pii_field_2": "secure_info_85",
        "non_pii_field_1": "non_pii_data_85",
        "non_pii_field_2": "additional_info_85"
    },
    {
        "id": 86,
        "lat": 41.149559,
        "long": -8.679623,
        "valid_address": "48XC+R5 Porto, Portugal",
        "timestamp": "2024-10-14T10:30:34",
        "source": "SCTP",
        "pii_field_1": "pii_data_86",
        "pii_field_2": "secure_info_86",
        "non_pii_field_1": "non_pii_data_86",
        "non_pii_field_2": "additional_info_86"
    },
    {
        "id": 87,
        "lat": 41.155285,
        "long": -8.55417,
        "valid_address": "R. \u00c1guas F\u00e9rreas de Campanh\u00e3 45, 4510 F\u00e2nzeres, Portugal",
        "timestamp": "2024-10-06T22:20:41",
        "source": "SCTP",
        "pii_field_1": "pii_data_87",
        "pii_field_2": "secure_info_87",
        "non_pii_field_1": "non_pii_data_87",
        "non_pii_field_2": "additional_info_87"
    },
    {
        "id": 88,
        "lat": 41.150556,
        "long": -8.574594,
        "valid_address": "Beco Campo 28G, 4300-100 Porto, Portugal",
        "timestamp": "2024-10-11T16:55:57",
        "source": "SCTP",
        "pii_field_1": "pii_data_88",
        "pii_field_2": "secure_info_88",
        "non_pii_field_1": "non_pii_data_88",
        "non_pii_field_2": "additional_info_88"
    },
    {
        "id": 89,
        "lat": 41.106918,
        "long": -8.640888,
        "valid_address": "Tv. do Vale 110, 4405-732 Vila Nova de Gaia, Portugal",
        "timestamp": "2024-10-13T00:27:14",
        "source": "SCTP",
        "pii_field_1": "pii_data_89",
        "pii_field_2": "secure_info_89",
        "non_pii_field_1": "non_pii_data_89",
        "non_pii_field_2": "additional_info_89"
    },
    {
        "id": 90,
        "lat": 41.199215,
        "long": -8.682689,
        "valid_address": "Av. Antunes Guimar\u00e3es 13, 4450 Le\u00e7a da Palmeira, Portugal",
        "timestamp": "2024-10-08T04:24:31",
        "source": "SCTP",
        "pii_field_1": "pii_data_90",
        "pii_field_2": "secure_info_90",
        "non_pii_field_1": "non_pii_data_90",
        "non_pii_field_2": "additional_info_90"
    },
    {
        "id": 91,
        "lat": 41.119461,
        "long": -8.601816,
        "valid_address": "Rua de Casais de Cidra 403, 4430 Vila Nova de Gaia, Portugal",
        "timestamp": "2024-10-16T05:30:50",
        "source": "SCTP",
        "pii_field_1": "pii_data_91",
        "pii_field_2": "secure_info_91",
        "non_pii_field_1": "non_pii_data_91",
        "non_pii_field_2": "additional_info_91"
    },
    {
        "id": 92,
        "lat": 41.163023,
        "long": -8.633359,
        "valid_address": "R. de 5 de Outubro 559, 4050 Porto, Portugal",
        "timestamp": "2024-10-05T23:38:06",
        "source": "SCTP",
        "pii_field_1": "pii_data_92",
        "pii_field_2": "secure_info_92",
        "non_pii_field_1": "non_pii_data_92",
        "non_pii_field_2": "additional_info_92"
    },
    {
        "id": 93,
        "lat": 41.131003,
        "long": -8.631602,
        "valid_address": "Alameda Dr. Barbeito de Sousa 75, 4400-619 Vila Nova de Gaia, Portugal",
        "timestamp": "2024-10-20T02:55:00",
        "source": "SCTP",
        "pii_field_1": "pii_data_93",
        "pii_field_2": "secure_info_93",
        "non_pii_field_1": "non_pii_data_93",
        "non_pii_field_2": "additional_info_93"
    },
    {
        "id": 94,
        "lat": 41.170692,
        "long": -8.690107,
        "valid_address": "58C5+7X Porto, Portugal",
        "timestamp": "2024-10-05T09:01:24",
        "source": "SCTP",
        "pii_field_1": "pii_data_94",
        "pii_field_2": "secure_info_94",
        "non_pii_field_1": "non_pii_data_94",
        "non_pii_field_2": "additional_info_94"
    },
    {
        "id": 95,
        "lat": 41.118488,
        "long": -8.615918,
        "valid_address": "Av. dos Descobrimentos 1137, 4400-103 Vila Nova de Gaia, Portugal",
        "timestamp": "2024-10-12T11:45:34",
        "source": "SCTP",
        "pii_field_1": "pii_data_95",
        "pii_field_2": "secure_info_95",
        "non_pii_field_1": "non_pii_data_95",
        "non_pii_field_2": "additional_info_95"
    },
    {
        "id": 96,
        "lat": 41.14557,
        "long": -8.602428,
        "valid_address": "Av. de Rodrigues de Freitas 341, 4000-098 Porto, Portugal",
        "timestamp": "2024-10-08T18:44:00",
        "source": "SCTP",
        "pii_field_1": "pii_data_96",
        "pii_field_2": "secure_info_96",
        "non_pii_field_1": "non_pii_data_96",
        "non_pii_field_2": "additional_info_96"
    },
    {
        "id": 97,
        "lat": 41.142455,
        "long": -8.634588,
        "valid_address": "49R8+X5 Vila Nova de Gaia, Portugal",
        "timestamp": "2024-10-16T02:27:09",
        "source": "SCTP",
        "pii_field_1": "pii_data_97",
        "pii_field_2": "secure_info_97",
        "non_pii_field_1": "non_pii_data_97",
        "non_pii_field_2": "additional_info_97"
    },
    {
        "id": 98,
        "lat": 41.169651,
        "long": -8.628736,
        "valid_address": "Rua de Sarmento de Beires 170, 4250-488 Porto, Portugal",
        "timestamp": "2024-10-04T19:38:47",
        "source": "SCTP",
        "pii_field_1": "pii_data_98",
        "pii_field_2": "secure_info_98",
        "non_pii_field_1": "non_pii_data_98",
        "non_pii_field_2": "additional_info_98"
    },
    {
        "id": 99,
        "lat": 41.129901,
        "long": -8.615309,
        "valid_address": "R. do Conselheiro Veloso da Cruz 373, 4400-088 Vila Nova de Gaia, Portugal",
        "timestamp": "2024-10-04T15:58:38",
        "source": "SCTP",
        "pii_field_1": "pii_data_99",
        "pii_field_2": "secure_info_99",
        "non_pii_field_1": "non_pii_data_99",
        "non_pii_field_2": "additional_info_99"
    },
    {
        "id": 100,
        "lat": 41.160121,
        "long": -8.592511,
        "valid_address": "Av. de Fern\u00e3o de Magalh\u00e3es 1197, 4350-185 Porto, Portugal",
        "timestamp": "2024-10-01T08:18:37",
        "source": "SCTP",
        "pii_field_1": "pii_data_100",
        "pii_field_2": "secure_info_100",
        "non_pii_field_1": "non_pii_data_100",
        "non_pii_field_2": "additional_info_100"
    }
]