route_id,direction_id,trip_headsign,wheelchair_accessible,block_id,shape_id,stop_id,stop_sequence,stop_headsign,stop_code,stop_name,stop_lat,stop_lon,zone_id,stop_url,trip_direction,neighborhood_name
107,0,Areias,1,,107_0_1_shp,AANT5,1,,AANT5,ALAMEDA DAS ANTAS,41.163200050617,-8.58340391200963,PRT1,http://www.stcp.pt/pt/viajar/paragens/?t=detalhe&paragem=AANT5,OUTBOUND_CITY_CENTER,Campanhã
107,0,Areias,1,,107_0_1_shp,EDRG1,2,,EDRG1,ESTÁDIO DO DRAGÃO,41.1602777640038,-8.58380550692549,PRT1,http://www.stcp.pt/pt/viajar/paragens/?t=detalhe&paragem=EDRG1,OUTBOUND_CITY_CENTER,Campanhã
107,0,Areias,1,,107_0_1_shp,CRJ1,3,,CRJ1,CORUJEIRA,41.1592845259,-8.58092164342542,PRT3,http://www.stcp.pt/pt/viajar/paragens/?t=detalhe&paragem=CRJ1,OUTBOUND_CITY_CENTER,Campanhã
107,0,Areias,1,,107_0_1_shp,PCRJ1,4,,PCRJ1,PR. DA CORUJEIRA,41.1569193474662,-8.5798649539462,PRT3,http://www.stcp.pt/pt/viajar/paragens/?t=detalhe&paragem=PCRJ1,OUTBOUND_CITY_CENTER,Campanhã
107,0,Areias,1,,107_0_1_shp,JFC,5,,JFC,JUNTA FREG. CAMPANHÃ,41.1581669000234,-8.57858673553547,PRT3,http://www.stcp.pt/pt/viajar/paragens/?t=detalhe&paragem=JFC,OUTBOUND_CITY_CENTER,Campanhã
107,0,Areias,1,,107_0_1_shp,FSTO1,6,,FSTO1,FERR. DOS SANTOS,41.1597222011059,-8.57747222902949,PRT3,http://www.stcp.pt/pt/viajar/paragens/?t=detalhe&paragem=FSTO1,OUTBOUND_CITY_CENTER,Campanhã
107,0,Areias,1,,107_0_1_shp,BFAL1,7,,BFAL1,BR. FALCÃO,41.1586217774712,-8.57535205251054,PRT3,http://www.stcp.pt/pt/viajar/paragens/?t=detalhe&paragem=BFAL1,OUTBOUND_CITY_CENTER,Campanhã
107,0,Areias,1,,107_0_1_shp,MCAM3,8,,MCAM3,MONTE CAMPANHÃ,41.1568580729901,-8.57475353228406,PRT3,http://www.stcp.pt/pt/viajar/paragens/?t=detalhe&paragem=MCAM3,OUTBOUND_CITY_CENTER,Campanhã
107,0,Areias,1,,107_0_1_shp,ICAM1,9,,ICAM1,IGREJA CAMPANHÃ,41.1548613734712,-8.57416825128125,PRT3,http://www.stcp.pt/pt/viajar/paragens/?t=detalhe&paragem=ICAM1,OUTBOUND_CITY_CENTER,Campanhã
107,0,Areias,1,,107_0_1_shp,QBNJ2,10,,QBNJ2,QUINTA DE BONJÓIA,41.1528339625569,-8.57688271098788,PRT3,http://www.stcp.pt/pt/viajar/paragens/?t=detalhe&paragem=QBNJ2,OUTBOUND_CITY_CENTER,Campanhã
107,0,Areias,1,,107_0_1_shp,TBNJ2,11,,TBNJ2,TRAVESSA DE BONJÓIA,41.1526695827903,-8.57980028569838,PRT3,http://www.stcp.pt/pt/viajar/paragens/?t=detalhe&paragem=TBNJ2,OUTBOUND_CITY_CENTER,Campanhã
107,0,Areias,1,,107_0_1_shp,PINC2,12,,PINC2,PINHEIRO DE CAMPANHÃ,41.1516350447375,-8.58186607499824,PRT1,http://www.stcp.pt/pt/viajar/paragens/?t=detalhe&paragem=PINC2,OUTBOUND_CITY_CENTER,Campanhã
107,0,Areias,1,,107_0_1_shp,CMP5,13,,CMP5,CAMPANHÃ,41.1486253886511,-8.58404462366558,PRT1,http://www.stcp.pt/pt/viajar/paragens/?t=detalhe&paragem=CMP5,OUTBOUND_CITY_CENTER,Campanhã
107,0,Areias,1,,107_0_1_shp,NDA1,14,,NDA1,NOEDA,41.1461872287448,-8.58422311066252,PRT1,http://www.stcp.pt/pt/viajar/paragens/?t=detalhe&paragem=NDA1,OUTBOUND_CITY_CENTER,Campanhã
107,0,Areias,1,,107_0_1_shp,EDP1,15,,EDP1,EDP,41.145412648838,-8.57966752235841,PRT1,http://www.stcp.pt/pt/viajar/paragens/?t=detalhe&paragem=EDP1,OUTBOUND_CITY_CENTER,Campanhã
107,0,Areias,1,,107_0_1_shp,FRX3,16,,FRX3,FREIXO,41.1462105982412,-8.57823161818415,PRT3,http://www.stcp.pt/pt/viajar/paragens/?t=detalhe&paragem=FRX3,OUTBOUND_CITY_CENTER,Campanhã
107,0,Areias,1,,107_0_1_shp,RSH,17,,RSH,SRA. DA HORA,41.1453251863274,-8.57667709685427,PRT3,http://www.stcp.pt/pt/viajar/paragens/?t=detalhe&paragem=RSH,OUTBOUND_CITY_CENTER,Campanhã
107,0,Areias,1,,107_0_1_shp,SP3,18,,SP3,S. PEDRO,41.1469394393652,-8.57331524969918,PRT3,http://www.stcp.pt/pt/viajar/paragens/?t=detalhe&paragem=SP3,OUTBOUND_CITY_CENTER,Campanhã
107,0,Areias,1,,107_0_1_shp,MERL,19,,MERL,MEIRAL,41.1487395716906,-8.57254015764169,PRT3,http://www.stcp.pt/pt/viajar/paragens/?t=detalhe&paragem=MERL,OUTBOUND_CITY_CENTER,Campanhã
107,0,Areias,1,,107_0_1_shp,VML,20,,VML,VIELA MEIRAL,41.1495696455093,-8.57106273457916,PRT3,http://www.stcp.pt/pt/viajar/paragens/?t=detalhe&paragem=VML,OUTBOUND_CITY_CENTER,Campanhã
107,0,Areias,1,,107_0_1_shp,LGT1,21,,LGT1,LAGARTEIRO,41.1515328215458,-8.56865408116958,PRT3,http://www.stcp.pt/pt/viajar/paragens/?t=detalhe&paragem=LGT1,OUTBOUND_CITY_CENTER,Campanhã
107,0,Areias,1,,107_0_1_shp,AZV1,22,,AZV1,AZEVEDO,41.1515231928068,-8.56643823652951,PRT3,http://www.stcp.pt/pt/viajar/paragens/?t=detalhe&paragem=AZV1,OUTBOUND_CITY_CENTER,Campanhã
107,0,Areias,1,,107_0_1_shp,TVA1,23,,TVA1,TV. ALDEIA,41.1524079157069,-8.56343009920649,PRT3,http://www.stcp.pt/pt/viajar/paragens/?t=detalhe&paragem=TVA1,OUTBOUND_CITY_CENTER,Campanhã
107,0,Areias,1,,107_0_1_shp,PNG3,24,,PNG3,PÊGO NEGRO,41.1547434097318,-8.56010966682408,PRT3,http://www.stcp.pt/pt/viajar/paragens/?t=detalhe&paragem=PNG3,OUTBOUND_CITY_CENTER,Campanhã
107,0,Areias,1,,107_0_1_shp,JD1,25,,JD1,JOÃO DE DEUS,41.1577496678772,-8.5579966374934,PRT3,http://www.stcp.pt/pt/viajar/paragens/?t=detalhe&paragem=JD1,OUTBOUND_CITY_CENTER,Campanhã
107,0,Areias,1,,107_0_1_shp,AREI,26,,AREI,AREIAS,41.1593283626169,-8.55516996745548,PRT3,http://www.stcp.pt/pt/viajar/paragens/?t=detalhe&paragem=AREI,OUTBOUND_CITY_CENTER,Campanhã
107,1,Estádio do Dragão,1,,107_1_1_shp,AREI2,1,,AREI2,AREIAS,41.1591084955401,-8.55577748652738,PRT3,http://www.stcp.pt/pt/viajar/paragens/?t=detalhe&paragem=AREI2,INBOUND_CITY_CENTER,OUTSIDE_PORTO_MUNICIPALITY_BOUNDARIES
107,1,Estádio do Dragão,1,,107_1_1_shp,JD4,2,,JD4,JOÃO DE DEUS,41.1578666104126,-8.55802717966919,PRT3,http://www.stcp.pt/pt/viajar/paragens/?t=detalhe&paragem=JD4,INBOUND_CITY_CENTER,OUTSIDE_PORTO_MUNICIPALITY_BOUNDARIES
107,1,Estádio do Dragão,1,,107_1_1_shp,PNG4,3,,PNG4,PÊGO NEGRO,41.1548979943241,-8.56004205149223,PRT3,http://www.stcp.pt/pt/viajar/paragens/?t=detalhe&paragem=PNG4,INBOUND_CITY_CENTER,Campanhã
107,1,Estádio do Dragão,1,,107_1_1_shp,TVA2,4,,TVA2,TV. ALDEIA,41.1524983132392,-8.56333538814198,PRT3,http://www.stcp.pt/pt/viajar/paragens/?t=detalhe&paragem=TVA2,INBOUND_CITY_CENTER,Campanhã
107,1,Estádio do Dragão,1,,107_1_1_shp,AZV,5,,AZV,AZEVEDO,41.1516171981647,-8.56655738974504,PRT3,http://www.stcp.pt/pt/viajar/paragens/?t=detalhe&paragem=AZV,INBOUND_CITY_CENTER,Campanhã
107,1,Estádio do Dragão,1,,107_1_1_shp,LGT2,6,,LGT2,LAGARTEIRO,41.1517159630332,-8.56879801231881,PRT3,http://www.stcp.pt/pt/viajar/paragens/?t=detalhe&paragem=LGT2,INBOUND_CITY_CENTER,Campanhã
107,1,Estádio do Dragão,1,,107_1_1_shp,RAZ,7,,RAZ,R. AZEVEDO,41.1518884281059,-8.57221838780191,PRT3,http://www.stcp.pt/pt/viajar/paragens/?t=detalhe&paragem=RAZ,INBOUND_CITY_CENTER,Campanhã
107,1,Estádio do Dragão,1,,107_1_1_shp,BNJ1,8,,BNJ1,BONJÓIA,41.1520154039685,-8.57461063038603,PRT3,http://www.stcp.pt/pt/viajar/paragens/?t=detalhe&paragem=BNJ1,INBOUND_CITY_CENTER,Campanhã
107,1,Estádio do Dragão,1,,107_1_1_shp,ICAM2,9,,ICAM2,IGREJA DE CAMPANHÃ,41.155484172028,-8.57412835711773,PRT3,http://www.stcp.pt/pt/viajar/paragens/?t=detalhe&paragem=ICAM2,INBOUND_CITY_CENTER,Campanhã
107,1,Estádio do Dragão,1,,107_1_1_shp,MCAM2,10,,MCAM2,MONTE CAMPANHÃ,41.157002595512,-8.57463536706399,PRT3,http://www.stcp.pt/pt/viajar/paragens/?t=detalhe&paragem=MCAM2,INBOUND_CITY_CENTER,Campanhã
107,1,Estádio do Dragão,1,,107_1_1_shp,BFAL2,11,,BFAL2,BR. FALCÃO,41.1589316063826,-8.57530731814519,PRT3,http://www.stcp.pt/pt/viajar/paragens/?t=detalhe&paragem=BFAL2,INBOUND_CITY_CENTER,Campanhã
107,1,Estádio do Dragão,1,,107_1_1_shp,CHOL2,12,,CHOL2,CHAVES OLIVEIRA,41.1608093339871,-8.57769250335057,PRT3,http://www.stcp.pt/pt/viajar/paragens/?t=detalhe&paragem=CHOL2,INBOUND_CITY_CENTER,Campanhã
107,1,Estádio do Dragão,1,,107_1_1_shp,CRJ2,13,,CRJ2,CORUJEIRA,41.1594193279733,-8.58080401684803,PRT3,http://www.stcp.pt/pt/viajar/paragens/?t=detalhe&paragem=CRJ2,INBOUND_CITY_CENTER,Campanhã
107,1,Estádio do Dragão,1,,107_1_1_shp,EDRG2,14,,EDRG2,ESTÁDIO DO DRAGÃO,41.1614722272002,-8.58186114728745,PRT1,http://www.stcp.pt/pt/viajar/paragens/?t=detalhe&paragem=EDRG2,INBOUND_CITY_CENTER,Campanhã
107,1,Estádio do Dragão,1,,107_1_1_shp,AANT5,15,,AANT5,ALAMEDA DAS ANTAS,41.163200050617,-8.58340391200963,PRT1,http://www.stcp.pt/pt/viajar/paragens/?t=detalhe&paragem=AANT5,INBOUND_CITY_CENTER,Campanhã
10M,0,Vila D'Este,1,,10M_0_1_shp,AL3,1,,AL3,AV. ALIADOS,41.1473646177743,-8.61147403739939,PRT1,http://www.stcp.pt/pt/viajar/paragens/?t=detalhe&paragem=AL3,OUTBOUND_CITY_CENTER,"União das freguesias de Cedofeita, Santo Ildefonso, Sé, Miragaia, São Nicolau e Vitória"
10M,0,Vila D'Este,1,,10M_0_1_shp,LPDZ,2,,LPDZ,L.GO 1º DEZEMBRO,41.1431246761791,-8.6090250418356,PRT1,http://www.stcp.pt/pt/viajar/paragens/?t=detalhe&paragem=LPDZ,OUTBOUND_CITY_CENTER,"União das freguesias de Cedofeita, Santo Ildefonso, Sé, Miragaia, São Nicolau e Vitória"
10M,0,Vila D'Este,1,,10M_0_1_shp,BTLH5,3,,BTLH5,BATALHA,41.1437222121175,-8.60408329160133,PRT1,http://www.stcp.pt/pt/viajar/paragens/?t=detalhe&paragem=BTLH5,OUTBOUND_CITY_CENTER,"União das freguesias de Cedofeita, Santo Ildefonso, Sé, Miragaia, São Nicolau e Vitória"
10M,0,Vila D'Este,1,,10M_0_1_shp,ESPL1,4,,ESPL1,ESCARPA SERRA  PILAR,41.1376503095486,-8.60140531107755,VNG1,http://www.stcp.pt/pt/viajar/paragens/?t=detalhe&paragem=ESPL1,OUTBOUND_CITY_CENTER,OUTSIDE_PORTO_MUNICIPALITY_BOUNDARIES
10M,0,Vila D'Este,1,,10M_0_1_shp,QSPL1,5,,QSPL1,QUARTEL SRR. PILAR,41.1374444588289,-8.60550001436573,VNG1,http://www.stcp.pt/pt/viajar/paragens/?t=detalhe&paragem=QSPL1,OUTBOUND_CITY_CENTER,OUTSIDE_PORTO_MUNICIPALITY_BOUNDARIES
10M,0,Vila D'Este,1,,10M_0_1_shp,JMRR1,6,,JMRR1,JARDIM DO MORRO,41.135361086146,-8.60811115571089,VNG1,http://www.stcp.pt/pt/viajar/paragens/?t=detalhe&paragem=JMRR1,OUTBOUND_CITY_CENTER,OUTSIDE_PORTO_MUNICIPALITY_BOUNDARIES
10M,0,Vila D'Este,1,,10M_0_1_shp,GENT2,7,,GENT2,GENERAL TORRES,41.1338332972875,-8.60763884910338,VNG1,http://www.stcp.pt/pt/viajar/paragens/?t=detalhe&paragem=GENT2,OUTBOUND_CITY_CENTER,OUTSIDE_PORTO_MUNICIPALITY_BOUNDARIES
10M,0,Vila D'Este,1,,10M_0_1_shp,CMG3,8,,CMG3,CÂMARA DE GAIA,41.1305277599094,-8.60658329521126,VNG1,http://www.stcp.pt/pt/viajar/paragens/?t=detalhe&paragem=CMG3,OUTBOUND_CITY_CENTER,OUTSIDE_PORTO_MUNICIPALITY_BOUNDARIES
10M,0,Vila D'Este,1,,10M_0_1_shp,PDC,9,,PDC,PÁDUA CORREIA,41.1260277848389,-8.60727774126906,VNG1,http://www.stcp.pt/pt/viajar/paragens/?t=detalhe&paragem=PDC,OUTBOUND_CITY_CENTER,OUTSIDE_PORTO_MUNICIPALITY_BOUNDARIES
10M,0,Vila D'Este,1,,10M_0_1_shp,LGAV2,10,,LGAV2,LGO. DOS AVIADORES,41.1266554567344,-8.61032757848051,VNG1,http://www.stcp.pt/pt/viajar/paragens/?t=detalhe&paragem=LGAV2,OUTBOUND_CITY_CENTER,OUTSIDE_PORTO_MUNICIPALITY_BOUNDARIES
10M,0,Vila D'Este,1,,10M_0_1_shp,SRRS3,11,,SRRS3,SOARES DOS REIS,41.1228610788785,-8.61163891291509,VNG1,http://www.stcp.pt/pt/viajar/paragens/?t=detalhe&paragem=SRRS3,OUTBOUND_CITY_CENTER,OUTSIDE_PORTO_MUNICIPALITY_BOUNDARIES
10M,0,Vila D'Este,1,,10M_0_1_shp,DP5,12,,DP5,D.PEDRO V,41.123416628058,-8.6093888298806,VNG1,http://www.stcp.pt/pt/viajar/paragens/?t=detalhe&paragem=DP5,OUTBOUND_CITY_CENTER,OUTSIDE_PORTO_MUNICIPALITY_BOUNDARIES
10M,0,Vila D'Este,1,,10M_0_1_shp,PREP2,13,,PREP2,PARQUE DA REPÚBLICA,41.1245443573253,-8.60602420755757,VNG1,http://www.stcp.pt/pt/viajar/paragens/?t=detalhe&paragem=PREP2,OUTBOUND_CITY_CENTER,OUTSIDE_PORTO_MUNICIPALITY_BOUNDARIES
10M,0,Vila D'Este,1,,10M_0_1_shp,BIBG1,14,,BIBG1,BIBLIOTECA DE GAIA,41.1223333014664,-8.60616666464792,VNG1,http://www.stcp.pt/pt/viajar/paragens/?t=detalhe&paragem=BIBG1,OUTBOUND_CITY_CENTER,OUTSIDE_PORTO_MUNICIPALITY_BOUNDARIES
10M,0,Vila D'Este,1,,10M_0_1_shp,DJM1,15,,DJM1,D.JOÃO II (METRO),41.1196110549185,-8.60644379164799,VNG1,http://www.stcp.pt/pt/viajar/paragens/?t=detalhe&paragem=DJM1,OUTBOUND_CITY_CENTER,OUTSIDE_PORTO_MUNICIPALITY_BOUNDARIES
10M,0,Vila D'Este,1,,10M_0_1_shp,SO3,16,,SO3,STO. OVÍDIO,41.115866405617,-8.6068203295126,VNG1,http://www.stcp.pt/pt/viajar/paragens/?t=detalhe&paragem=SO3,OUTBOUND_CITY_CENTER,OUTSIDE_PORTO_MUNICIPALITY_BOUNDARIES
10M,0,Vila D'Este,1,,10M_0_1_shp,CCC3,17,,CCC3,CLUBE CAÇADORES,41.1149721710267,-8.60472220692285,VNG1,http://www.stcp.pt/pt/viajar/paragens/?t=detalhe&paragem=CCC3,OUTBOUND_CITY_CENTER,OUTSIDE_PORTO_MUNICIPALITY_BOUNDARIES
10M,0,Vila D'Este,1,,10M_0_1_shp,CRVL1,18,,CRVL1,CRAVEL,41.1140277500838,-8.60266664446279,VNG1,http://www.stcp.pt/pt/viajar/paragens/?t=detalhe&paragem=CRVL1,OUTBOUND_CITY_CENTER,OUTSIDE_PORTO_MUNICIPALITY_BOUNDARIES
10M,0,Vila D'Este,1,,10M_0_1_shp,RTP3,19,,RTP3,RTP,41.1125277935808,-8.60052777861878,VNG1,http://www.stcp.pt/pt/viajar/paragens/?t=detalhe&paragem=RTP3,OUTBOUND_CITY_CENTER,OUTSIDE_PORTO_MUNICIPALITY_BOUNDARIES
10M,0,Vila D'Este,1,,10M_0_1_shp,EBSR1,20,,EBSR1,ESC. EB 2/3 S REIS,41.1109999741355,-8.59861108818329,VNG1,http://www.stcp.pt/pt/viajar/paragens/?t=detalhe&paragem=EBSR1,OUTBOUND_CITY_CENTER,OUTSIDE_PORTO_MUNICIPALITY_BOUNDARIES
10M,0,Vila D'Este,1,,10M_0_1_shp,SRD1,21,,SRD1,SARDOAL,41.1088333428895,-8.59613889622864,VNG1,http://www.stcp.pt/pt/viajar/paragens/?t=detalhe&paragem=SRD1,OUTBOUND_CITY_CENTER,OUTSIDE_PORTO_MUNICIPALITY_BOUNDARIES
10M,0,Vila D'Este,1,,10M_0_1_shp,EMZ1,22,,EMZ1,EGAS MONIZ,41.1078610981358,-8.59400000028375,VNG2,http://www.stcp.pt/pt/viajar/paragens/?t=detalhe&paragem=EMZ1,OUTBOUND_CITY_CENTER,OUTSIDE_PORTO_MUNICIPALITY_BOUNDARIES
10M,0,Vila D'Este,1,,10M_0_1_shp,HSS1,23,,HSS1,HOSP. SANTOS SILVA,41.1053333459591,-8.59097224194779,VNG2,http://www.stcp.pt/pt/viajar/paragens/?t=detalhe&paragem=HSS1,OUTBOUND_CITY_CENTER,OUTSIDE_PORTO_MUNICIPALITY_BOUNDARIES
10M,0,Vila D'Este,1,,10M_0_1_shp,MV3,24,,MV3,MONTE DA VIRGEM,41.103555565546,-8.58883330952317,VNG2,http://www.stcp.pt/pt/viajar/paragens/?t=detalhe&paragem=MV3,OUTBOUND_CITY_CENTER,OUTSIDE_PORTO_MUNICIPALITY_BOUNDARIES
10M,0,Vila D'Este,1,,10M_0_1_shp,SALM1,25,,SALM1,SALGUEIRO MAIA,41.1014444518526,-8.58938886693177,VNG2,http://www.stcp.pt/pt/viajar/paragens/?t=detalhe&paragem=SALM1,OUTBOUND_CITY_CENTER,OUTSIDE_PORTO_MUNICIPALITY_BOUNDARIES
10M,0,Vila D'Este,1,,10M_0_1_shp,MIM1,26,,MIM1,MIMOSAS,41.0989166205991,-8.58919444432914,VNG2,http://www.stcp.pt/pt/viajar/paragens/?t=detalhe&paragem=MIM1,OUTBOUND_CITY_CENTER,OUTSIDE_PORTO_MUNICIPALITY_BOUNDARIES
10M,0,Vila D'Este,1,,10M_0_1_shp,UVDE3,27,,UVDE3,URB. VILA D'ESTE,41.0969443981643,-8.58819448990427,VNG2,http://www.stcp.pt/pt/viajar/paragens/?t=detalhe&paragem=UVDE3,OUTBOUND_CITY_CENTER,OUTSIDE_PORTO_MUNICIPALITY_BOUNDARIES
10M,0,Vila D'Este,1,,10M_0_1_shp,VDE1,28,,VDE1,VILA D'ESTE,41.0955277376736,-8.58944446600284,VNG2,http://www.stcp.pt/pt/viajar/paragens/?t=detalhe&paragem=VDE1,OUTBOUND_CITY_CENTER,OUTSIDE_PORTO_MUNICIPALITY_BOUNDARIES
10M,1,Aliados,1,,10M_1_1_shp,VDE1,1,,VDE1,VILA D'ESTE,41.0955277376736,-8.58944446600284,VNG2,http://www.stcp.pt/pt/viajar/paragens/?t=detalhe&paragem=VDE1,INBOUND_CITY_CENTER,OUTSIDE_PORTO_MUNICIPALITY_BOUNDARIES
10M,1,Aliados,1,,10M_1_1_shp,UVDE2,2,,UVDE2,URB. VILA D'ESTE,41.0969810215141,-8.58799596431392,VNG2,http://www.stcp.pt/pt/viajar/paragens/?t=detalhe&paragem=UVDE2,INBOUND_CITY_CENTER,OUTSIDE_PORTO_MUNICIPALITY_BOUNDARIES
10M,1,Aliados,1,,10M_1_1_shp,MIM2,3,,MIM2,MIMOSAS,41.0987222286391,-8.58880552631763,VNG2,http://www.stcp.pt/pt/viajar/paragens/?t=detalhe&paragem=MIM2,INBOUND_CITY_CENTER,OUTSIDE_PORTO_MUNICIPALITY_BOUNDARIES
10M,1,Aliados,1,,10M_1_1_shp,SALM2,4,,SALM2,SALGUEIRO MAIA,41.1016944417201,-8.58947226162367,VNG2,http://www.stcp.pt/pt/viajar/paragens/?t=detalhe&paragem=SALM2,INBOUND_CITY_CENTER,OUTSIDE_PORTO_MUNICIPALITY_BOUNDARIES
10M,1,Aliados,1,,10M_1_1_shp,MV2,5,,MV2,MONTE DA VIRGEM,41.1041388845084,-8.58930554595588,VNG2,http://www.stcp.pt/pt/viajar/paragens/?t=detalhe&paragem=MV2,INBOUND_CITY_CENTER,OUTSIDE_PORTO_MUNICIPALITY_BOUNDARIES
10M,1,Aliados,1,,10M_1_1_shp,HSS2,6,,HSS2,HOSP. SANTOS SILVA,41.1056869468887,-8.59117553350616,VNG2,http://www.stcp.pt/pt/viajar/paragens/?t=detalhe&paragem=HSS2,INBOUND_CITY_CENTER,OUTSIDE_PORTO_MUNICIPALITY_BOUNDARIES
10M,1,Aliados,1,,10M_1_1_shp,EMZ2,7,,EMZ2,EGAS MONIZ,41.1079999666883,-8.59397216393063,VNG2,http://www.stcp.pt/pt/viajar/paragens/?t=detalhe&paragem=EMZ2,INBOUND_CITY_CENTER,OUTSIDE_PORTO_MUNICIPALITY_BOUNDARIES
10M,1,Aliados,1,,10M_1_1_shp,SRD2,8,,SRD2,SARDOAL,41.109085275492,-8.59658782696688,VNG1,http://www.stcp.pt/pt/viajar/paragens/?t=detalhe&paragem=SRD2,INBOUND_CITY_CENTER,OUTSIDE_PORTO_MUNICIPALITY_BOUNDARIES
10M,1,Aliados,1,,10M_1_1_shp,EBSR2,9,,EBSR2,ESC. EB 2/3 S REIS,41.1107442483137,-8.59827818761207,VNG1,http://www.stcp.pt/pt/viajar/paragens/?t=detalhe&paragem=EBSR2,INBOUND_CITY_CENTER,OUTSIDE_PORTO_MUNICIPALITY_BOUNDARIES
10M,1,Aliados,1,,10M_1_1_shp,RTP2,10,,RTP2,RTP,41.1123638384842,-8.59999276069727,VNG1,http://www.stcp.pt/pt/viajar/paragens/?t=detalhe&paragem=RTP2,INBOUND_CITY_CENTER,OUTSIDE_PORTO_MUNICIPALITY_BOUNDARIES
10M,1,Aliados,1,,10M_1_1_shp,CRVL,11,,CRVL,CRAVEL,41.1139958818215,-8.60244448887354,VNG1,http://www.stcp.pt/pt/viajar/paragens/?t=detalhe&paragem=CRVL,INBOUND_CITY_CENTER,OUTSIDE_PORTO_MUNICIPALITY_BOUNDARIES
10M,1,Aliados,1,,10M_1_1_shp,CCC2,12,,CCC2,CLUBE CAÇADORES,41.1150208708688,-8.60459385044103,VNG1,http://www.stcp.pt/pt/viajar/paragens/?t=detalhe&paragem=CCC2,INBOUND_CITY_CENTER,OUTSIDE_PORTO_MUNICIPALITY_BOUNDARIES
10M,1,Aliados,1,,10M_1_1_shp,SO4,13,,SO4,STO. OVÍDIO,41.1160277886138,-8.60633333142045,VNG1,http://www.stcp.pt/pt/viajar/paragens/?t=detalhe&paragem=SO4,INBOUND_CITY_CENTER,OUTSIDE_PORTO_MUNICIPALITY_BOUNDARIES
10M,1,Aliados,1,,10M_1_1_shp,DJM2,14,,DJM2,D.JOÃO II (METRO),41.12016669273,-8.60563882397128,VNG1,http://www.stcp.pt/pt/viajar/paragens/?t=detalhe&paragem=DJM2,INBOUND_CITY_CENTER,OUTSIDE_PORTO_MUNICIPALITY_BOUNDARIES
10M,1,Aliados,1,,10M_1_1_shp,BIBG2,15,,BIBG2,BIBLIOTECA DE GAIA,41.1223332741421,-8.60588886222303,VNG1,http://www.stcp.pt/pt/viajar/paragens/?t=detalhe&paragem=BIBG2,INBOUND_CITY_CENTER,OUTSIDE_PORTO_MUNICIPALITY_BOUNDARIES
10M,1,Aliados,1,,10M_1_1_shp,JD2,16,,JD2,JOÃO DE DEUS,41.1252499899503,-8.60563882174599,VNG1,http://www.stcp.pt/pt/viajar/paragens/?t=detalhe&paragem=JD2,INBOUND_CITY_CENTER,OUTSIDE_PORTO_MUNICIPALITY_BOUNDARIES
10M,1,Aliados,1,,10M_1_1_shp,PDC,17,,PDC,PÁDUA CORREIA,41.1260277848389,-8.60727774126906,VNG1,http://www.stcp.pt/pt/viajar/paragens/?t=detalhe&paragem=PDC,INBOUND_CITY_CENTER,OUTSIDE_PORTO_MUNICIPALITY_BOUNDARIES
10M,1,Aliados,1,,10M_1_1_shp,LGAV2,18,,LGAV2,LGO. DOS AVIADORES,41.1266554567344,-8.61032757848051,VNG1,http://www.stcp.pt/pt/viajar/paragens/?t=detalhe&paragem=LGAV2,INBOUND_CITY_CENTER,OUTSIDE_PORTO_MUNICIPALITY_BOUNDARIES
10M,1,Aliados,1,,10M_1_1_shp,HGAI1,19,,HGAI1,HOSP. GAIA,41.1283332973892,-8.60913890280009,VNG1,http://www.stcp.pt/pt/viajar/paragens/?t=detalhe&paragem=HGAI1,INBOUND_CITY_CENTER,OUTSIDE_PORTO_MUNICIPALITY_BOUNDARIES
10M,1,Aliados,1,,10M_1_1_shp,CMG1,20,,CMG1,CÂMARA DE GAIA,41.1306109088251,-8.60633332898121,VNG1,http://www.stcp.pt/pt/viajar/paragens/?t=detalhe&paragem=CMG1,INBOUND_CITY_CENTER,OUTSIDE_PORTO_MUNICIPALITY_BOUNDARIES
10M,1,Aliados,1,,10M_1_1_shp,GENT3,21,,GENT3,GENERAL TORRES,41.1341110970616,-8.60741659747929,VNG1,http://www.stcp.pt/pt/viajar/paragens/?t=detalhe&paragem=GENT3,INBOUND_CITY_CENTER,OUTSIDE_PORTO_MUNICIPALITY_BOUNDARIES
10M,1,Aliados,1,,10M_1_1_shp,JMRR2,22,,JMRR2,JARDIM DO MORRO,41.1359434992926,-8.60802032608154,VNG1,http://www.stcp.pt/pt/viajar/paragens/?t=detalhe&paragem=JMRR2,INBOUND_CITY_CENTER,OUTSIDE_PORTO_MUNICIPALITY_BOUNDARIES
10M,1,Aliados,1,,10M_1_1_shp,QSPL2,23,,QSPL2,QUARTEL SRR. PILAR,41.1371944311073,-8.60588887051668,VNG1,http://www.stcp.pt/pt/viajar/paragens/?t=detalhe&paragem=QSPL2,INBOUND_CITY_CENTER,OUTSIDE_PORTO_MUNICIPALITY_BOUNDARIES
10M,1,Aliados,1,,10M_1_1_shp,ESPL2,24,,ESPL2,ESCARPA SERRA PILAR,41.1375942401015,-8.601155510188,VNG1,http://www.stcp.pt/pt/viajar/paragens/?t=detalhe&paragem=ESPL2,INBOUND_CITY_CENTER,OUTSIDE_PORTO_MUNICIPALITY_BOUNDARIES
10M,1,Aliados,1,,10M_1_1_shp,DQL1,25,,DQL1,DUQUE LOULÉ,41.1455321861289,-8.60361611371884,PRT1,http://www.stcp.pt/pt/viajar/paragens/?t=detalhe&paragem=DQL1,INBOUND_CITY_CENTER,"União das freguesias de Cedofeita, Santo Ildefonso, Sé, Miragaia, São Nicolau e Vitória"
10M,1,Aliados,1,,10M_1_1_shp,ALXH3,26,,ALXH3,ALEX. HERCULANO,41.1442427332737,-8.60525018060673,PRT1,http://www.stcp.pt/pt/viajar/paragens/?t=detalhe&paragem=ALXH3,INBOUND_CITY_CENTER,"União das freguesias de Cedofeita, Santo Ildefonso, Sé, Miragaia, São Nicolau e Vitória"
10M,1,Aliados,1,,10M_1_1_shp,BTLH1,27,,BTLH1,BATALHA,41.145083316354,-8.60716661149907,PRT1,http://www.stcp.pt/pt/viajar/paragens/?t=detalhe&paragem=BTLH1,INBOUND_CITY_CENTER,"União das freguesias de Cedofeita, Santo Ildefonso, Sé, Miragaia, São Nicolau e Vitória"
10M,1,Aliados,1,,10M_1_1_shp,PRDJ,28,,PRDJ,PR. D. JOÃO I,41.1475811967699,-8.60912607741907,PRT1,http://www.stcp.pt/pt/viajar/paragens/?t=detalhe&paragem=PRDJ,INBOUND_CITY_CENTER,"União das freguesias de Cedofeita, Santo Ildefonso, Sé, Miragaia, São Nicolau e Vitória"
10M,1,Aliados,1,,10M_1_1_shp,AAL4,29,,AAL4,AV.ALIADOS,41.1485277270248,-8.61066664214757,PRT1,http://www.stcp.pt/pt/viajar/paragens/?t=detalhe&paragem=AAL4,INBOUND_CITY_CENTER,"União das freguesias de Cedofeita, Santo Ildefonso, Sé, Miragaia, São Nicolau e Vitória"
10M,1,Aliados,1,,10M_1_1_shp,AL3,30,,AL3,AV. ALIADOS,41.1473646177743,-8.61147403739939,PRT1,http://www.stcp.pt/pt/viajar/paragens/?t=detalhe&paragem=AL3,INBOUND_CITY_CENTER,"União das freguesias de Cedofeita, Santo Ildefonso, Sé, Miragaia, São Nicolau e Vitória"
11M,0,Coimbrões,1,,11M_0_1_shp,HSJ6,1,,HSJ6,HOSP. S. JOÃO (URGÊNCIA),41.1828921092331,-8.60052355775418,PRT3,http://www.stcp.pt/pt/viajar/paragens/?t=detalhe&paragem=HSJ6,OUTBOUND_CITY_CENTER,Paranhos
11M,0,Coimbrões,1,,11M_0_1_shp,ESED2,2,,ESED2,ESC. SUP. EDUCAÇÃO,41.1813889166248,-8.59766665655445,PRT3,http://www.stcp.pt/pt/viajar/paragens/?t=detalhe&paragem=ESED2,OUTBOUND_CITY_CENTER,Paranhos
11M,0,Coimbrões,1,,11M_0_1_shp,FEUP2,3,,FEUP2,FACULDADE DE ENGENHARIA,41.1790833201085,-8.5987499771748,PRT3,http://www.stcp.pt/pt/viajar/paragens/?t=detalhe&paragem=FEUP2,OUTBOUND_CITY_CENTER,Paranhos
11M,0,Coimbrões,1,,11M_0_1_shp,FEP1,4,,FEP1,FACULDADE DE ECONOMIA,41.1754999619678,-8.60022216202211,PRT3,http://www.stcp.pt/pt/viajar/paragens/?t=detalhe&paragem=FEP1,OUTBOUND_CITY_CENTER,Paranhos
11M,0,Coimbrões,1,,11M_0_1_shp,CPRN4,5,,CPRN4,CEMITÉRIO PARANHOS,41.17420880451,-8.6004976613948,PRT3,http://www.stcp.pt/pt/viajar/paragens/?t=detalhe&paragem=CPRN4,OUTBOUND_CITY_CENTER,Paranhos
11M,0,Coimbrões,1,,11M_0_1_shp,IPRN2,6,,IPRN2,IGREJA DE PARANHOS,41.1734088566364,-8.60580445084521,PRT3,http://www.stcp.pt/pt/viajar/paragens/?t=detalhe&paragem=IPRN2,OUTBOUND_CITY_CENTER,Paranhos
11M,0,Coimbrões,1,,11M_0_1_shp,CVLO,7,,CVLO,COVELO,41.1665936865342,-8.60738693845119,PRT1,http://www.stcp.pt/pt/viajar/paragens/?t=detalhe&paragem=CVLO,OUTBOUND_CITY_CENTER,Paranhos
11M,0,Coimbrões,1,,11M_0_1_shp,CONS2,8,,CONS2,CONSTITUIÇÃO,41.1633333556051,-8.60897224515225,PRT1,http://www.stcp.pt/pt/viajar/paragens/?t=detalhe&paragem=CONS2,OUTBOUND_CITY_CENTER,Paranhos
11M,0,Coimbrões,1,,11M_0_1_shp,HSM,9,,HSM,HOSP. S.TA MARIA,41.1601296674161,-8.61003012181917,PRT1,http://www.stcp.pt/pt/viajar/paragens/?t=detalhe&paragem=HSM,OUTBOUND_CITY_CENTER,"União das freguesias de Cedofeita, Santo Ildefonso, Sé, Miragaia, São Nicolau e Vitória"
11M,0,Coimbrões,1,,11M_0_1_shp,PRSM2,10,,PRSM2,PARAÍSO (METRO),41.1569933303712,-8.61006701903923,PRT1,http://www.stcp.pt/pt/viajar/paragens/?t=detalhe&paragem=PRSM2,OUTBOUND_CITY_CENTER,"União das freguesias de Cedofeita, Santo Ildefonso, Sé, Miragaia, São Nicolau e Vitória"
11M,0,Coimbrões,1,,11M_0_1_shp,GCRT2,11,,GCRT2,GONÇALO CRISTÓVÃO,41.154420642738,-8.61010777189339,PRT1,http://www.stcp.pt/pt/viajar/paragens/?t=detalhe&paragem=GCRT2,OUTBOUND_CITY_CENTER,"União das freguesias de Cedofeita, Santo Ildefonso, Sé, Miragaia, São Nicolau e Vitória"
11M,0,Coimbrões,1,,11M_0_1_shp,TRD5,12,,TRD5,TRINDADE,41.1522221863897,-8.61016660973729,PRT1,http://www.stcp.pt/pt/viajar/paragens/?t=detalhe&paragem=TRD5,OUTBOUND_CITY_CENTER,"União das freguesias de Cedofeita, Santo Ildefonso, Sé, Miragaia, São Nicolau e Vitória"
11M,0,Coimbrões,1,,11M_0_1_shp,AL7,13,,AL7,AV. ALIADOS,41.1481552258623,-8.61135805535354,PRT1,http://www.stcp.pt/pt/viajar/paragens/?t=detalhe&paragem=AL7,OUTBOUND_CITY_CENTER,"União das freguesias de Cedofeita, Santo Ildefonso, Sé, Miragaia, São Nicolau e Vitória"
11M,0,Coimbrões,1,,11M_0_1_shp,AL3,14,,AL3,AV. ALIADOS,41.1473646177743,-8.61147403739939,PRT1,http://www.stcp.pt/pt/viajar/paragens/?t=detalhe&paragem=AL3,OUTBOUND_CITY_CENTER,"União das freguesias de Cedofeita, Santo Ildefonso, Sé, Miragaia, São Nicolau e Vitória"
11M,0,Coimbrões,1,,11M_0_1_shp,MS2,15,,MS2,MOUZINHO  SILVEIRA,41.1434377730167,-8.61337077626025,PRT1,http://www.stcp.pt/pt/viajar/paragens/?t=detalhe&paragem=MS2,OUTBOUND_CITY_CENTER,"União das freguesias de Cedofeita, Santo Ildefonso, Sé, Miragaia, São Nicolau e Vitória"
11M,0,Coimbrões,1,,11M_0_1_shp,RBR1,16,,RBR1,RIBEIRA,41.1412135444906,-8.61390670015759,PRT1,http://www.stcp.pt/pt/viajar/paragens/?t=detalhe&paragem=RBR1,OUTBOUND_CITY_CENTER,"União das freguesias de Cedofeita, Santo Ildefonso, Sé, Miragaia, São Nicolau e Vitória"
11M,0,Coimbrões,1,,11M_0_1_shp,ELVG1,17,,ELVG1,ELEVADOR GUINDAIS,41.1411195006185,-8.61054713593278,PRT1,http://www.stcp.pt/pt/viajar/paragens/?t=detalhe&paragem=ELVG1,OUTBOUND_CITY_CENTER,"União das freguesias de Cedofeita, Santo Ildefonso, Sé, Miragaia, São Nicolau e Vitória"
11M,0,Coimbrões,1,,11M_0_1_shp,PLU3,18,,PLU3,PONTE LUÍZ I,41.1387499994393,-8.60975001196584,VNG1,http://www.stcp.pt/pt/viajar/paragens/?t=detalhe&paragem=PLU3,OUTBOUND_CITY_CENTER,OUTSIDE_PORTO_MUNICIPALITY_BOUNDARIES
11M,0,Coimbrões,1,,11M_0_1_shp,GNR3,19,,GNR3,GNR,41.1355594631975,-8.6116024296669,VNG1,http://www.stcp.pt/pt/viajar/paragens/?t=detalhe&paragem=GNR3,OUTBOUND_CITY_CENTER,OUTSIDE_PORTO_MUNICIPALITY_BOUNDARIES
11M,0,Coimbrões,1,,11M_0_1_shp,CM5,20,,CM5,CAMÕES,41.1342777780693,-8.60941660098788,VNG1,http://www.stcp.pt/pt/viajar/paragens/?t=detalhe&paragem=CM5,OUTBOUND_CITY_CENTER,OUTSIDE_PORTO_MUNICIPALITY_BOUNDARIES
11M,0,Coimbrões,1,,11M_0_1_shp,GENT2,21,,GENT2,GENERAL TORRES,41.1338332972875,-8.60763884910338,VNG1,http://www.stcp.pt/pt/viajar/paragens/?t=detalhe&paragem=GENT2,OUTBOUND_CITY_CENTER,OUTSIDE_PORTO_MUNICIPALITY_BOUNDARIES
11M,0,Coimbrões,1,,11M_0_1_shp,DSRR1,22,,DSRR1,DANIEL SERRÃO,41.1317351677698,-8.60701513192472,VNG1,http://www.stcp.pt/pt/viajar/paragens/?t=detalhe&paragem=DSRR1,OUTBOUND_CITY_CENTER,OUTSIDE_PORTO_MUNICIPALITY_BOUNDARIES
11M,0,Coimbrões,1,,11M_0_1_shp,TRBG1,23,,TRBG1,TRIBUNAL DE GAIA,41.1289444259142,-8.61002779038752,VNG1,http://www.stcp.pt/pt/viajar/paragens/?t=detalhe&paragem=TRBG1,OUTBOUND_CITY_CENTER,OUTSIDE_PORTO_MUNICIPALITY_BOUNDARIES
11M,0,Coimbrões,1,,11M_0_1_shp,DISP1,24,,DISP1,DISPENSÁRIO,41.1292471575865,-8.61494759105916,VNG1,http://www.stcp.pt/pt/viajar/paragens/?t=detalhe&paragem=DISP1,OUTBOUND_CITY_CENTER,OUTSIDE_PORTO_MUNICIPALITY_BOUNDARIES
11M,0,Coimbrões,1,,11M_0_1_shp,DVE2,25,,DVE2,DEVESAS (ESTAÇÃO),41.1291943892737,-8.6205000152955,VNG1,http://www.stcp.pt/pt/viajar/paragens/?t=detalhe&paragem=DVE2,OUTBOUND_CITY_CENTER,OUTSIDE_PORTO_MUNICIPALITY_BOUNDARIES
11M,0,Coimbrões,1,,11M_0_1_shp,MRI2,26,,MRI2,MARIANI,41.1279166737339,-8.62300001879237,VNG1,http://www.stcp.pt/pt/viajar/paragens/?t=detalhe&paragem=MRI2,OUTBOUND_CITY_CENTER,OUTSIDE_PORTO_MUNICIPALITY_BOUNDARIES
11M,0,Coimbrões,1,,11M_0_1_shp,APRD2,27,,APRD2,ARCO DO PRADO,41.1270832933353,-8.6246944389439,VNG1,http://www.stcp.pt/pt/viajar/paragens/?t=detalhe&paragem=APRD2,OUTBOUND_CITY_CENTER,OUTSIDE_PORTO_MUNICIPALITY_BOUNDARIES
11M,0,Coimbrões,1,,11M_0_1_shp,CMSM1,28,,CMSM1,CEMITÉRIO STA. MARINHA,41.1288888794184,-8.62672218398002,VNG1,http://www.stcp.pt/pt/viajar/paragens/?t=detalhe&paragem=CMSM1,OUTBOUND_CITY_CENTER,OUTSIDE_PORTO_MUNICIPALITY_BOUNDARIES
11M,0,Coimbrões,1,,11M_0_1_shp,BVC2,29,,BVC2,B.V. COIMBRÕES,41.1272221931979,-8.62924996081456,VNG1,http://www.stcp.pt/pt/viajar/paragens/?t=detalhe&paragem=BVC2,OUTBOUND_CITY_CENTER,OUTSIDE_PORTO_MUNICIPALITY_BOUNDARIES
11M,0,Coimbrões,1,,11M_0_1_shp,LV1,30,,LV1,LAVOURAS,41.125222173976,-8.63163885268604,VNG1,http://www.stcp.pt/pt/viajar/paragens/?t=detalhe&paragem=LV1,OUTBOUND_CITY_CENTER,OUTSIDE_PORTO_MUNICIPALITY_BOUNDARIES
11M,0,Coimbrões,1,,11M_0_1_shp,COB4,31,,COB4,COIMBRÕES,41.1242222466399,-8.63155553315725,VNG1,http://www.stcp.pt/pt/viajar/paragens/?t=detalhe&paragem=COB4,OUTBOUND_CITY_CENTER,OUTSIDE_PORTO_MUNICIPALITY_BOUNDARIES
11M,0,Coimbrões,1,,11M_0_1_shp,AGOM1,32,,AGOM1,AUGUSTO GOMES,41.1235277199274,-8.63377772353843,VNG1,http://www.stcp.pt/pt/viajar/paragens/?t=detalhe&paragem=AGOM1,OUTBOUND_CITY_CENTER,OUTSIDE_PORTO_MUNICIPALITY_BOUNDARIES
11M,0,Coimbrões,1,,11M_0_1_shp,RMT1,33,,RMT1,R. DAS MATAS,41.1210433006019,-8.63355935067303,VNG1,http://www.stcp.pt/pt/viajar/paragens/?t=detalhe&paragem=RMT1,OUTBOUND_CITY_CENTER,OUTSIDE_PORTO_MUNICIPALITY_BOUNDARIES
11M,0,Coimbrões,1,,11M_0_1_shp,QBV1,34,,QBV1,QUINTA BELA VISTA,41.1188810451763,-8.63497480868313,VNG4,http://www.stcp.pt/pt/viajar/paragens/?t=detalhe&paragem=QBV1,OUTBOUND_CITY_CENTER,OUTSIDE_PORTO_MUNICIPALITY_BOUNDARIES
11M,1,Hosp. S. João,1,,11M_1_1_shp,QBV2,1,,QBV2,QUINTA BELA VISTA,41.118813564893,-8.63469472019814,VNG4,http://www.stcp.pt/pt/viajar/paragens/?t=detalhe&paragem=QBV2,INBOUND_CITY_CENTER,OUTSIDE_PORTO_MUNICIPALITY_BOUNDARIES
11M,1,Hosp. S. João,1,,11M_1_1_shp,RMT2,2,,RMT2,R. DAS MATAS,41.1207758994147,-8.63334631860043,VNG1,http://www.stcp.pt/pt/viajar/paragens/?t=detalhe&paragem=RMT2,INBOUND_CITY_CENTER,OUTSIDE_PORTO_MUNICIPALITY_BOUNDARIES
11M,1,Hosp. S. João,1,,11M_1_1_shp,LGDM2,3,,LGDM2,L. DOMINGOS MATOS,41.1224166214152,-8.63261113366911,VNG1,http://www.stcp.pt/pt/viajar/paragens/?t=detalhe&paragem=LGDM2,INBOUND_CITY_CENTER,OUTSIDE_PORTO_MUNICIPALITY_BOUNDARIES
11M,1,Hosp. S. João,1,,11M_1_1_shp,COB3,4,,COB3,COIMBRÕES,41.1242499518121,-8.63141665959505,VNG1,http://www.stcp.pt/pt/viajar/paragens/?t=detalhe&paragem=COB3,INBOUND_CITY_CENTER,OUTSIDE_PORTO_MUNICIPALITY_BOUNDARIES
11M,1,Hosp. S. João,1,,11M_1_1_shp,COB6,5,,COB6,COIMBRÕES 1,41.1239722085091,-8.63030558003839,VNG1,http://www.stcp.pt/pt/viajar/paragens/?t=detalhe&paragem=COB6,INBOUND_CITY_CENTER,OUTSIDE_PORTO_MUNICIPALITY_BOUNDARIES
11M,1,Hosp. S. João,1,,11M_1_1_shp,RGR1,6,,RGR1,REGUEIRA,41.1248610969695,-8.62780556020498,VNG1,http://www.stcp.pt/pt/viajar/paragens/?t=detalhe&paragem=RGR1,INBOUND_CITY_CENTER,OUTSIDE_PORTO_MUNICIPALITY_BOUNDARIES
11M,1,Hosp. S. João,1,,11M_1_1_shp,APRD1,7,,APRD1,ARCO DO PRADO,41.1266671630726,-8.62512490655616,VNG1,http://www.stcp.pt/pt/viajar/paragens/?t=detalhe&paragem=APRD1,INBOUND_CITY_CENTER,OUTSIDE_PORTO_MUNICIPALITY_BOUNDARIES
11M,1,Hosp. S. João,1,,11M_1_1_shp,MRI1,8,,MRI1,MARIANI,41.1278611125454,-8.62291660224495,VNG1,http://www.stcp.pt/pt/viajar/paragens/?t=detalhe&paragem=MRI1,INBOUND_CITY_CENTER,OUTSIDE_PORTO_MUNICIPALITY_BOUNDARIES
11M,1,Hosp. S. João,1,,11M_1_1_shp,DVE3,9,,DVE3,DEVESAS (ESTAÇÃO),41.129194431061,-8.62027779837081,VNG1,http://www.stcp.pt/pt/viajar/paragens/?t=detalhe&paragem=DVE3,INBOUND_CITY_CENTER,OUTSIDE_PORTO_MUNICIPALITY_BOUNDARIES
11M,1,Hosp. S. João,1,,11M_1_1_shp,DISP2,10,,DISP2,DISPENSÁRIO,41.1292777326324,-8.61547215818273,VNG1,http://www.stcp.pt/pt/viajar/paragens/?t=detalhe&paragem=DISP2,INBOUND_CITY_CENTER,OUTSIDE_PORTO_MUNICIPALITY_BOUNDARIES
11M,1,Hosp. S. João,1,,11M_1_1_shp,TRBG2,11,,TRBG2,TRIBUNAL DE GAIA,41.1289444563532,-8.61186113572901,VNG1,http://www.stcp.pt/pt/viajar/paragens/?t=detalhe&paragem=TRBG2,INBOUND_CITY_CENTER,OUTSIDE_PORTO_MUNICIPALITY_BOUNDARIES
11M,1,Hosp. S. João,1,,11M_1_1_shp,HG3,12,,HG3,HOSP. GAIA,41.1291771851615,-8.60900747135588,VNG1,http://www.stcp.pt/pt/viajar/paragens/?t=detalhe&paragem=HG3,INBOUND_CITY_CENTER,OUTSIDE_PORTO_MUNICIPALITY_BOUNDARIES
11M,1,Hosp. S. João,1,,11M_1_1_shp,GENT,13,,GENT,GENERAL TORRES,41.1335000099114,-8.60838888545431,VNG1,http://www.stcp.pt/pt/viajar/paragens/?t=detalhe&paragem=GENT,INBOUND_CITY_CENTER,OUTSIDE_PORTO_MUNICIPALITY_BOUNDARIES
11M,1,Hosp. S. João,1,,11M_1_1_shp,CM3,14,,CM3,CAMÕES,41.134204258747,-8.6096661706617,VNG1,http://www.stcp.pt/pt/viajar/paragens/?t=detalhe&paragem=CM3,INBOUND_CITY_CENTER,OUTSIDE_PORTO_MUNICIPALITY_BOUNDARIES
11M,1,Hosp. S. João,1,,11M_1_1_shp,GNR2,15,,GNR2,GNR,41.1356323336031,-8.61142323991135,VNG1,http://www.stcp.pt/pt/viajar/paragens/?t=detalhe&paragem=GNR2,INBOUND_CITY_CENTER,OUTSIDE_PORTO_MUNICIPALITY_BOUNDARIES
11M,1,Hosp. S. João,1,,11M_1_1_shp,PLU2,16,,PLU2,PONTE LUÍZ I,41.1385380178247,-8.60988520536511,VNG1,http://www.stcp.pt/pt/viajar/paragens/?t=detalhe&paragem=PLU2,INBOUND_CITY_CENTER,OUTSIDE_PORTO_MUNICIPALITY_BOUNDARIES
11M,1,Hosp. S. João,1,,11M_1_1_shp,ELVG2,17,,ELVG2,ELEVADOR GUINDAIS,41.1412720739477,-8.61066735453043,PRT1,http://www.stcp.pt/pt/viajar/paragens/?t=detalhe&paragem=ELVG2,INBOUND_CITY_CENTER,"União das freguesias de Cedofeita, Santo Ildefonso, Sé, Miragaia, São Nicolau e Vitória"
11M,1,Hosp. S. João,1,,11M_1_1_shp,RBR2,18,,RBR2,RIBEIRA,41.1412184432508,-8.61426370642136,PRT1,http://www.stcp.pt/pt/viajar/paragens/?t=detalhe&paragem=RBR2,INBOUND_CITY_CENTER,"União das freguesias de Cedofeita, Santo Ildefonso, Sé, Miragaia, São Nicolau e Vitória"
11M,1,Hosp. S. João,1,,11M_1_1_shp,MS1,19,,MS1,MOUZINHO SILVEIRA,41.1435833265365,-8.61297221493401,PRT1,http://www.stcp.pt/pt/viajar/paragens/?t=detalhe&paragem=MS1,INBOUND_CITY_CENTER,"União das freguesias de Cedofeita, Santo Ildefonso, Sé, Miragaia, São Nicolau e Vitória"
11M,1,Hosp. S. João,1,,11M_1_1_shp,SBNT3,20,,SBNT3,EST. S.BENTO,41.1447777336355,-8.61133333540896,PRT1,http://www.stcp.pt/pt/viajar/paragens/?t=detalhe&paragem=SBNT3,INBOUND_CITY_CENTER,"União das freguesias de Cedofeita, Santo Ildefonso, Sé, Miragaia, São Nicolau e Vitória"
11M,1,Hosp. S. João,1,,11M_1_1_shp,PRDJ,21,,PRDJ,PR. D. JOÃO I,41.1475811967699,-8.60912607741907,PRT1,http://www.stcp.pt/pt/viajar/paragens/?t=detalhe&paragem=PRDJ,INBOUND_CITY_CENTER,"União das freguesias de Cedofeita, Santo Ildefonso, Sé, Miragaia, São Nicolau e Vitória"
11M,1,Hosp. S. João,1,,11M_1_1_shp,AAL2,22,,AAL2,AV. ALIADOS,41.1488184731304,-8.61047208496171,PRT1,http://www.stcp.pt/pt/viajar/paragens/?t=detalhe&paragem=AAL2,INBOUND_CITY_CENTER,"União das freguesias de Cedofeita, Santo Ildefonso, Sé, Miragaia, São Nicolau e Vitória"
11M,1,Hosp. S. João,1,,11M_1_1_shp,TRD1,23,,TRD1,TRINDADE,41.1517695414226,-8.60960246400057,PRT1,http://www.stcp.pt/pt/viajar/paragens/?t=detalhe&paragem=TRD1,INBOUND_CITY_CENTER,"União das freguesias de Cedofeita, Santo Ildefonso, Sé, Miragaia, São Nicolau e Vitória"
11M,1,Hosp. S. João,1,,11M_1_1_shp,GCRT1,24,,GCRT1,GONÇALO CRISTÓVÃO,41.1541944452086,-8.6096111316042,PRT1,http://www.stcp.pt/pt/viajar/paragens/?t=detalhe&paragem=GCRT1,INBOUND_CITY_CENTER,"União das freguesias de Cedofeita, Santo Ildefonso, Sé, Miragaia, São Nicolau e Vitória"
11M,1,Hosp. S. João,1,,11M_1_1_shp,PRSM1,25,,PRSM1,PARAÍSO (METRO),41.1570540576503,-8.60910232409264,PRT1,http://www.stcp.pt/pt/viajar/paragens/?t=detalhe&paragem=PRSM1,INBOUND_CITY_CENTER,"União das freguesias de Cedofeita, Santo Ildefonso, Sé, Miragaia, São Nicolau e Vitória"
11M,1,Hosp. S. João,1,,11M_1_1_shp,HSM1,26,,HSM1,HOSP. S.TA MARIA,41.1593540691223,-8.60815395475939,PRT1,http://www.stcp.pt/pt/viajar/paragens/?t=detalhe&paragem=HSM1,INBOUND_CITY_CENTER,"União das freguesias de Cedofeita, Santo Ildefonso, Sé, Miragaia, São Nicolau e Vitória"
11M,1,Hosp. S. João,1,,11M_1_1_shp,CONS1,27,,CONS1,CONSTITUIÇÃO,41.1638278148902,-8.60630376891161,PRT1,http://www.stcp.pt/pt/viajar/paragens/?t=detalhe&paragem=CONS1,INBOUND_CITY_CENTER,Paranhos
11M,1,Hosp. S. João,1,,11M_1_1_shp,CVLO1,28,,CVLO1,COVELO,41.1659166900427,-8.60633074918764,PRT1,http://www.stcp.pt/pt/viajar/paragens/?t=detalhe&paragem=CVLO1,INBOUND_CITY_CENTER,Paranhos
11M,1,Hosp. S. João,1,,11M_1_1_shp,IPRN1,29,,IPRN1,IGREJA DE PARANHOS,41.1741286245383,-8.60583382917094,PRT3,http://www.stcp.pt/pt/viajar/paragens/?t=detalhe&paragem=IPRN1,INBOUND_CITY_CENTER,Paranhos
11M,1,Hosp. S. João,1,,11M_1_1_shp,ISEP3,30,,ISEP3,ISEP/AGRA,41.176408832424,-8.60797952743696,PRT3,http://www.stcp.pt/pt/viajar/paragens/?t=detalhe&paragem=ISEP3,INBOUND_CITY_CENTER,Paranhos
11M,1,Hosp. S. João,1,,11M_1_1_shp,ISEP1,31,,ISEP1,I.S.E.P.,41.1785721459621,-8.60914310319778,PRT3,http://www.stcp.pt/pt/viajar/paragens/?t=detalhe&paragem=ISEP1,INBOUND_CITY_CENTER,Paranhos
11M,1,Hosp. S. João,1,,11M_1_1_shp,IB3,32,,IB3,ILHA BRAVA,41.1817816316492,-8.60929058960363,PRT3,http://www.stcp.pt/pt/viajar/paragens/?t=detalhe&paragem=IB3,INBOUND_CITY_CENTER,Paranhos
11M,1,Hosp. S. João,1,,11M_1_1_shp,ST3,33,,ST3,S. TOMÉ,41.1838044114954,-8.60940372690547,PRT3,http://www.stcp.pt/pt/viajar/paragens/?t=detalhe&paragem=ST3,INBOUND_CITY_CENTER,Paranhos
11M,1,Hosp. S. João,1,,11M_1_1_shp,IPO4,34,,IPO4,IPO (CIRCUNVAL.),41.1839151435425,-8.60438677565646,PRT3,http://www.stcp.pt/pt/viajar/paragens/?t=detalhe&paragem=IPO4,INBOUND_CITY_CENTER,Paranhos
11M,1,Hosp. S. João,1,,11M_1_1_shp,HSJ6,35,,HSJ6,HOSP. S. JOÃO (URGÊNCIA),41.1828921092331,-8.60052355775418,PRT3,http://www.stcp.pt/pt/viajar/paragens/?t=detalhe&paragem=HSJ6,INBOUND_CITY_CENTER,Paranhos
12M,1,Aliados,1,,12M_1_1_shp,SO2,1,,SO2,STO. OVÍDIO,41.1161388643975,-8.6071944869778,VNG1,http://www.stcp.pt/pt/viajar/paragens/?t=detalhe&paragem=SO2,INBOUND_CITY_CENTER,OUTSIDE_PORTO_MUNICIPALITY_BOUNDARIES
12M,1,Aliados,1,,12M_1_1_shp,LGET2,2,,LGET2,L. ESTEVÃO TORRES,41.1183280905388,-8.60850121242557,VNG1,http://www.stcp.pt/pt/viajar/paragens/?t=detalhe&paragem=LGET2,INBOUND_CITY_CENTER,OUTSIDE_PORTO_MUNICIPALITY_BOUNDARIES
12M,1,Aliados,1,,12M_1_1_shp,CSSR2,3,,CSSR2,C. SAÚDE S. REIS,41.1206110960984,-8.60975000314457,VNG1,http://www.stcp.pt/pt/viajar/paragens/?t=detalhe&paragem=CSSR2,INBOUND_CITY_CENTER,OUTSIDE_PORTO_MUNICIPALITY_BOUNDARIES
12M,1,Aliados,1,,12M_1_1_shp,SRRS2,4,,SRRS2,SOARES DOS REIS,41.1229779243921,-8.61149484799281,VNG1,http://www.stcp.pt/pt/viajar/paragens/?t=detalhe&paragem=SRRS2,INBOUND_CITY_CENTER,OUTSIDE_PORTO_MUNICIPALITY_BOUNDARIES
12M,1,Aliados,1,,12M_1_1_shp,BRRS,5,,BRRS,BARROSA,41.1250555463489,-8.61238890341704,VNG1,http://www.stcp.pt/pt/viajar/paragens/?t=detalhe&paragem=BRRS,INBOUND_CITY_CENTER,OUTSIDE_PORTO_MUNICIPALITY_BOUNDARIES
12M,1,Aliados,1,,12M_1_1_shp,TCVC,6,,TCVC,TV.CONSELHEIRO VELOSO DA CRUZ,41.1254722309069,-8.61491669315486,VNG1,http://www.stcp.pt/pt/viajar/paragens/?t=detalhe&paragem=TCVC,INBOUND_CITY_CENTER,OUTSIDE_PORTO_MUNICIPALITY_BOUNDARIES
12M,1,Aliados,1,,12M_1_1_shp,ALPR1,7,,ALPR1,ALFÉRES PEREIRA,41.1242777670997,-8.61627781515718,VNG1,http://www.stcp.pt/pt/viajar/paragens/?t=detalhe&paragem=ALPR1,INBOUND_CITY_CENTER,OUTSIDE_PORTO_MUNICIPALITY_BOUNDARIES
12M,1,Aliados,1,,12M_1_1_shp,VDV2,8,,VDV2,VISCONDE DEVESAS,41.1225833226171,-8.61449994264625,VNG1,http://www.stcp.pt/pt/viajar/paragens/?t=detalhe&paragem=VDV2,INBOUND_CITY_CENTER,OUTSIDE_PORTO_MUNICIPALITY_BOUNDARIES
12M,1,Aliados,1,,12M_1_1_shp,INFH2,9,,INFH2,INFANTE D.HENRIQUE,41.1203610747223,-8.61533335888864,VNG1,http://www.stcp.pt/pt/viajar/paragens/?t=detalhe&paragem=INFH2,INBOUND_CITY_CENTER,OUTSIDE_PORTO_MUNICIPALITY_BOUNDARIES
12M,1,Aliados,1,,12M_1_1_shp,TELH2,10,,TELH2,TELHEIRA,41.1176944499494,-8.61922215802122,VNG1,http://www.stcp.pt/pt/viajar/paragens/?t=detalhe&paragem=TELH2,INBOUND_CITY_CENTER,OUTSIDE_PORTO_MUNICIPALITY_BOUNDARIES
12M,1,Aliados,1,,12M_1_1_shp,GSHP2,11,,GSHP2,GAIASHOPPING,41.1188055788054,-8.62219447219774,VNG1,http://www.stcp.pt/pt/viajar/paragens/?t=detalhe&paragem=GSHP2,INBOUND_CITY_CENTER,OUTSIDE_PORTO_MUNICIPALITY_BOUNDARIES
12M,1,Aliados,1,,12M_1_1_shp,MAKR4,12,,MAKR4,MAKRO,41.1203888374464,-8.62661106801497,VNG1,http://www.stcp.pt/pt/viajar/paragens/?t=detalhe&paragem=MAKR4,INBOUND_CITY_CENTER,OUTSIDE_PORTO_MUNICIPALITY_BOUNDARIES
12M,1,Aliados,1,,12M_1_1_shp,AKI2,13,,AKI2,AKI,41.1221111237972,-8.62494445273721,VNG1,http://www.stcp.pt/pt/viajar/paragens/?t=detalhe&paragem=AKI2,INBOUND_CITY_CENTER,OUTSIDE_PORTO_MUNICIPALITY_BOUNDARIES
12M,1,Aliados,1,,12M_1_1_shp,HRC2,14,,HRC2,HENRIQUE CERNACHE,41.1232777977313,-8.62241661085552,VNG1,http://www.stcp.pt/pt/viajar/paragens/?t=detalhe&paragem=HRC2,INBOUND_CITY_CENTER,OUTSIDE_PORTO_MUNICIPALITY_BOUNDARIES
12M,1,Aliados,1,,12M_1_1_shp,RFON2,15,,RFON2,RIO DA FONTE,41.1250555125988,-8.62330556228844,VNG1,http://www.stcp.pt/pt/viajar/paragens/?t=detalhe&paragem=RFON2,INBOUND_CITY_CENTER,OUTSIDE_PORTO_MUNICIPALITY_BOUNDARIES
12M,1,Aliados,1,,12M_1_1_shp,APRD3,16,,APRD3,ARCO DO PRADO,41.1267136648625,-8.62482111682007,VNG1,http://www.stcp.pt/pt/viajar/paragens/?t=detalhe&paragem=APRD3,INBOUND_CITY_CENTER,OUTSIDE_PORTO_MUNICIPALITY_BOUNDARIES
12M,1,Aliados,1,,12M_1_1_shp,CMSM1,17,,CMSM1,CEMITÉRIO STA. MARINHA,41.1288888794184,-8.62672218398002,VNG1,http://www.stcp.pt/pt/viajar/paragens/?t=detalhe&paragem=CMSM1,INBOUND_CITY_CENTER,OUTSIDE_PORTO_MUNICIPALITY_BOUNDARIES
12M,1,Aliados,1,,12M_1_1_shp,BVC2,18,,BVC2,B.V. COIMBRÕES,41.1272221931979,-8.62924996081456,VNG1,http://www.stcp.pt/pt/viajar/paragens/?t=detalhe&paragem=BVC2,INBOUND_CITY_CENTER,OUTSIDE_PORTO_MUNICIPALITY_BOUNDARIES
12M,1,Aliados,1,,12M_1_1_shp,LV4,19,,LV4,LAVOURAS,41.1261944323283,-8.63141663863138,VNG1,http://www.stcp.pt/pt/viajar/paragens/?t=detalhe&paragem=LV4,INBOUND_CITY_CENTER,OUTSIDE_PORTO_MUNICIPALITY_BOUNDARIES
12M,1,Aliados,1,,12M_1_1_shp,PRMR2,20,,PRMR2,PR. M. SILVA REIS,41.1278543435365,-8.63196379938186,VNG1,http://www.stcp.pt/pt/viajar/paragens/?t=detalhe&paragem=PRMR2,INBOUND_CITY_CENTER,OUTSIDE_PORTO_MUNICIPALITY_BOUNDARIES
12M,1,Aliados,1,,12M_1_1_shp,MJP2,21,,MJP2,MAJOR PÁLA,41.1306388705985,-8.63108331015887,VNG1,http://www.stcp.pt/pt/viajar/paragens/?t=detalhe&paragem=MJP2,INBOUND_CITY_CENTER,OUTSIDE_PORTO_MUNICIPALITY_BOUNDARIES
12M,1,Aliados,1,,12M_1_1_shp,CDL2,22,,CDL2,CANDAL,41.1335555155428,-8.6307777868913,VNG1,http://www.stcp.pt/pt/viajar/paragens/?t=detalhe&paragem=CDL2,INBOUND_CITY_CENTER,OUTSIDE_PORTO_MUNICIPALITY_BOUNDARIES
12M,1,Aliados,1,,12M_1_1_shp,LGM2,23,,LGM2,LGO. MONTINHO,41.1345832969888,-8.6306665949801,VNG1,http://www.stcp.pt/pt/viajar/paragens/?t=detalhe&paragem=LGM2,INBOUND_CITY_CENTER,OUTSIDE_PORTO_MUNICIPALITY_BOUNDARIES
12M,1,Aliados,1,,12M_1_1_shp,AH,24,,AH,ALEX. HERCULANO,41.1356831145201,-8.63240293544469,VNG1,http://www.stcp.pt/pt/viajar/paragens/?t=detalhe&paragem=AH,INBOUND_CITY_CENTER,OUTSIDE_PORTO_MUNICIPALITY_BOUNDARIES
12M,1,Aliados,1,,12M_1_1_shp,28J2,25,,28J2,28 DE JANEIRO,41.1367144640935,-8.63304546419777,VNG1,http://www.stcp.pt/pt/viajar/paragens/?t=detalhe&paragem=28J2,INBOUND_CITY_CENTER,OUTSIDE_PORTO_MUNICIPALITY_BOUNDARIES
12M,1,Aliados,1,,12M_1_1_shp,CCB2,26,,CCB2,CAMILO C. BRANCO,41.1384895732242,-8.63366521550586,VNG1,http://www.stcp.pt/pt/viajar/paragens/?t=detalhe&paragem=CCB2,INBOUND_CITY_CENTER,OUTSIDE_PORTO_MUNICIPALITY_BOUNDARIES
12M,1,Aliados,1,,12M_1_1_shp,ARRB2,27,,ARRB2,ARRÁBIDASHOPPING,41.1391943968339,-8.63569442801924,VNG1,http://www.stcp.pt/pt/viajar/paragens/?t=detalhe&paragem=ARRB2,INBOUND_CITY_CENTER,OUTSIDE_PORTO_MUNICIPALITY_BOUNDARIES
12M,1,Aliados,1,,12M_1_1_shp,JA2,28,,JA2,JARDINS DA ARRÁBIDA,41.1390288560178,-8.63894675875186,VNG1,http://www.stcp.pt/pt/viajar/paragens/?t=detalhe&paragem=JA2,INBOUND_CITY_CENTER,OUTSIDE_PORTO_MUNICIPALITY_BOUNDARIES
12M,1,Aliados,1,,12M_1_1_shp,CHAS2,29,,CHAS2,CHÃS,41.1414166658308,-8.64174992951832,VNG1,http://www.stcp.pt/pt/viajar/paragens/?t=detalhe&paragem=CHAS2,INBOUND_CITY_CENTER,OUTSIDE_PORTO_MUNICIPALITY_BOUNDARIES
12M,1,Aliados,1,,12M_1_1_shp,NOC,30,,NOC,NÓ CANDAL,41.1452326468425,-8.64010661320546,VNG1,http://www.stcp.pt/pt/viajar/paragens/?t=detalhe&paragem=NOC,INBOUND_CITY_CENTER,OUTSIDE_PORTO_MUNICIPALITY_BOUNDARIES
12M,1,Aliados,1,,12M_1_1_shp,JM2,31,,JM2,JUNTA MASSARELOS,41.1525277785088,-8.63030556121167,PRT1,http://www.stcp.pt/pt/viajar/paragens/?t=detalhe&paragem=JM2,INBOUND_CITY_CENTER,União das freguesias de Lordelo do Ouro e Massarelos
12M,1,Aliados,1,,12M_1_1_shp,PRG6,32,,PRG6,PR. DA GALIZA,41.1523797354597,-8.62686279145699,PRT1,http://www.stcp.pt/pt/viajar/paragens/?t=detalhe&paragem=PRG6,INBOUND_CITY_CENTER,União das freguesias de Lordelo do Ouro e Massarelos
12M,1,Aliados,1,,12M_1_1_shp,PAL4,33,,PAL4,PALÁCIO,41.1483368190521,-8.62474143733427,PRT1,http://www.stcp.pt/pt/viajar/paragens/?t=detalhe&paragem=PAL4,INBOUND_CITY_CENTER,União das freguesias de Lordelo do Ouro e Massarelos
12M,1,Aliados,1,,12M_1_1_shp,HSA,34,,HSA,HOSP.STO. ANTÓNIO,41.146488006884,-8.62020822884295,PRT1,http://www.stcp.pt/pt/viajar/paragens/?t=detalhe&paragem=HSA,INBOUND_CITY_CENTER,"União das freguesias de Cedofeita, Santo Ildefonso, Sé, Miragaia, São Nicolau e Vitória"
12M,1,Aliados,1,,12M_1_1_shp,CORD4,35,,CORD4,CORDOARIA,41.1451016654134,-8.61618694297183,PRT1,http://www.stcp.pt/pt/viajar/paragens/?t=detalhe&paragem=CORD4,INBOUND_CITY_CENTER,"União das freguesias de Cedofeita, Santo Ildefonso, Sé, Miragaia, São Nicolau e Vitória"
12M,1,Aliados,1,,12M_1_1_shp,PRFL1,36,,PRFL1,PR.FILIPA DE LENCASTRE,41.148219856669,-8.61367211199646,PRT1,http://www.stcp.pt/pt/viajar/paragens/?t=detalhe&paragem=PRFL1,INBOUND_CITY_CENTER,"União das freguesias de Cedofeita, Santo Ildefonso, Sé, Miragaia, São Nicolau e Vitória"
12M,1,Aliados,1,,12M_1_1_shp,AAL1,37,,AAL1,AV.ALIADOS,41.1489444244748,-8.61127779731674,PRT1,http://www.stcp.pt/pt/viajar/paragens/?t=detalhe&paragem=AAL1,INBOUND_CITY_CENTER,"União das freguesias de Cedofeita, Santo Ildefonso, Sé, Miragaia, São Nicolau e Vitória"
12M,0,Sto. Ovídio,1,,12M_0_1_shp,AAL1,1,,AAL1,AV.ALIADOS,41.1489444244748,-8.61127779731674,PRT1,http://www.stcp.pt/pt/viajar/paragens/?t=detalhe&paragem=AAL1,OUTBOUND_CITY_CENTER,"União das freguesias de Cedofeita, Santo Ildefonso, Sé, Miragaia, São Nicolau e Vitória"
12M,0,Sto. Ovídio,1,,12M_0_1_shp,PRFL,2,,PRFL,PR.FILIPA DE LENCASTRE,41.1483046015824,-8.61276347355207,PRT1,http://www.stcp.pt/pt/viajar/paragens/?t=detalhe&paragem=PRFL,OUTBOUND_CITY_CENTER,"União das freguesias de Cedofeita, Santo Ildefonso, Sé, Miragaia, São Nicolau e Vitória"
12M,0,Sto. Ovídio,1,,12M_0_1_shp,GGF,3,,GGF,GUIL. G. FERNANDES,41.1475602128653,-8.61476664888298,PRT1,http://www.stcp.pt/pt/viajar/paragens/?t=detalhe&paragem=GGF,OUTBOUND_CITY_CENTER,"União das freguesias de Cedofeita, Santo Ildefonso, Sé, Miragaia, São Nicolau e Vitória"
12M,0,Sto. Ovídio,1,,12M_0_1_shp,CMO,4,,CMO,CARMO,41.1472276569054,-8.61695947381185,PRT1,http://www.stcp.pt/pt/viajar/paragens/?t=detalhe&paragem=CMO,OUTBOUND_CITY_CENTER,"União das freguesias de Cedofeita, Santo Ildefonso, Sé, Miragaia, São Nicolau e Vitória"
12M,0,Sto. Ovídio,1,,12M_0_1_shp,HSA5,5,,HSA5,HOSP. ST. ANTÓNIO,41.1477660933285,-8.6224501585514,PRT1,http://www.stcp.pt/pt/viajar/paragens/?t=detalhe&paragem=HSA5,OUTBOUND_CITY_CENTER,"União das freguesias de Cedofeita, Santo Ildefonso, Sé, Miragaia, São Nicolau e Vitória"
12M,0,Sto. Ovídio,1,,12M_0_1_shp,PAL2,6,,PAL2,PALÁCIO,41.1492817862205,-8.62548481745503,PRT1,http://www.stcp.pt/pt/viajar/paragens/?t=detalhe&paragem=PAL2,OUTBOUND_CITY_CENTER,União das freguesias de Lordelo do Ouro e Massarelos
12M,0,Sto. Ovídio,1,,12M_0_1_shp,PRG3,7,,PRG3,PR. DA GALIZA,41.1525887273639,-8.62690403352945,PRT1,http://www.stcp.pt/pt/viajar/paragens/?t=detalhe&paragem=PRG3,OUTBOUND_CITY_CENTER,União das freguesias de Lordelo do Ouro e Massarelos
12M,0,Sto. Ovídio,1,,12M_0_1_shp,JM1,8,,JM1,JUNTA MASSARELOS,41.1526941731599,-8.63122138218141,PRT1,http://www.stcp.pt/pt/viajar/paragens/?t=detalhe&paragem=JM1,OUTBOUND_CITY_CENTER,União das freguesias de Lordelo do Ouro e Massarelos
12M,0,Sto. Ovídio,1,,12M_0_1_shp,GGT3,9,,GGT3,GÓLGOTA,41.1519722385676,-8.63452780051602,PRT1,http://www.stcp.pt/pt/viajar/paragens/?t=detalhe&paragem=GGT3,OUTBOUND_CITY_CENTER,União das freguesias de Lordelo do Ouro e Massarelos
12M,0,Sto. Ovídio,1,,12M_0_1_shp,CHAS3,10,,CHAS3,CHÃS,41.1422222104416,-8.64211111877782,VNG1,http://www.stcp.pt/pt/viajar/paragens/?t=detalhe&paragem=CHAS3,OUTBOUND_CITY_CENTER,OUTSIDE_PORTO_MUNICIPALITY_BOUNDARIES
12M,0,Sto. Ovídio,1,,12M_0_1_shp,JA1,11,,JA1,JARDINS DA ARRÁBIDA,41.1389721747334,-8.63961104790017,VNG1,http://www.stcp.pt/pt/viajar/paragens/?t=detalhe&paragem=JA1,OUTBOUND_CITY_CENTER,OUTSIDE_PORTO_MUNICIPALITY_BOUNDARIES
12M,0,Sto. Ovídio,1,,12M_0_1_shp,ARRB3,12,,ARRB3,ARRÁBIDASHOPPING,41.1390555006817,-8.63549993825997,VNG1,http://www.stcp.pt/pt/viajar/paragens/?t=detalhe&paragem=ARRB3,OUTBOUND_CITY_CENTER,OUTSIDE_PORTO_MUNICIPALITY_BOUNDARIES
12M,0,Sto. Ovídio,1,,12M_0_1_shp,CCB1,13,,CCB1,CAMILO C. BRANCO,41.1390000083801,-8.63399997962349,VNG1,http://www.stcp.pt/pt/viajar/paragens/?t=detalhe&paragem=CCB1,OUTBOUND_CITY_CENTER,OUTSIDE_PORTO_MUNICIPALITY_BOUNDARIES
12M,0,Sto. Ovídio,1,,12M_0_1_shp,28J1,14,,28J1,28 DE JANEIRO,41.1372221907552,-8.63344438968152,VNG1,http://www.stcp.pt/pt/viajar/paragens/?t=detalhe&paragem=28J1,OUTBOUND_CITY_CENTER,OUTSIDE_PORTO_MUNICIPALITY_BOUNDARIES
12M,0,Sto. Ovídio,1,,12M_0_1_shp,EC,15,,EC,ELECTROCERÂMICA,41.1366110665927,-8.62966661943008,VNG1,http://www.stcp.pt/pt/viajar/paragens/?t=detalhe&paragem=EC,OUTBOUND_CITY_CENTER,OUTSIDE_PORTO_MUNICIPALITY_BOUNDARIES
12M,0,Sto. Ovídio,1,,12M_0_1_shp,LGM1,16,,LGM1,L.GO MONTINHO,41.1349753085887,-8.63046674041323,VNG1,http://www.stcp.pt/pt/viajar/paragens/?t=detalhe&paragem=LGM1,OUTBOUND_CITY_CENTER,OUTSIDE_PORTO_MUNICIPALITY_BOUNDARIES
12M,0,Sto. Ovídio,1,,12M_0_1_shp,LGEQ1,17,,LGEQ1,LGO. EÇA QUEIRÓS,41.1340277722528,-8.63211107351264,VNG1,http://www.stcp.pt/pt/viajar/paragens/?t=detalhe&paragem=LGEQ1,OUTBOUND_CITY_CENTER,OUTSIDE_PORTO_MUNICIPALITY_BOUNDARIES
12M,0,Sto. Ovídio,1,,12M_0_1_shp,TFL1,18,,TFL1,TV. FONTE LODOSA,41.1319444594444,-8.63291663013531,VNG1,http://www.stcp.pt/pt/viajar/paragens/?t=detalhe&paragem=TFL1,OUTBOUND_CITY_CENTER,OUTSIDE_PORTO_MUNICIPALITY_BOUNDARIES
12M,0,Sto. Ovídio,1,,12M_0_1_shp,MJP1,19,,MJP1,MAJOR PÁLA,41.1301388285999,-8.63136104696799,VNG1,http://www.stcp.pt/pt/viajar/paragens/?t=detalhe&paragem=MJP1,OUTBOUND_CITY_CENTER,OUTSIDE_PORTO_MUNICIPALITY_BOUNDARIES
12M,0,Sto. Ovídio,1,,12M_0_1_shp,PRMR1,20,,PRMR1,PR. M. SILVA REIS,41.1275834799874,-8.63215370727074,VNG1,http://www.stcp.pt/pt/viajar/paragens/?t=detalhe&paragem=PRMR1,OUTBOUND_CITY_CENTER,OUTSIDE_PORTO_MUNICIPALITY_BOUNDARIES
12M,0,Sto. Ovídio,1,,12M_0_1_shp,LV1,21,,LV1,LAVOURAS,41.125222173976,-8.63163885268604,VNG1,http://www.stcp.pt/pt/viajar/paragens/?t=detalhe&paragem=LV1,OUTBOUND_CITY_CENTER,OUTSIDE_PORTO_MUNICIPALITY_BOUNDARIES
12M,0,Sto. Ovídio,1,,12M_0_1_shp,COB6,22,,COB6,COIMBRÕES 1,41.1239722085091,-8.63030558003839,VNG1,http://www.stcp.pt/pt/viajar/paragens/?t=detalhe&paragem=COB6,OUTBOUND_CITY_CENTER,OUTSIDE_PORTO_MUNICIPALITY_BOUNDARIES
12M,0,Sto. Ovídio,1,,12M_0_1_shp,RGR1,23,,RGR1,REGUEIRA,41.1248610969695,-8.62780556020498,VNG1,http://www.stcp.pt/pt/viajar/paragens/?t=detalhe&paragem=RGR1,OUTBOUND_CITY_CENTER,OUTSIDE_PORTO_MUNICIPALITY_BOUNDARIES
12M,0,Sto. Ovídio,1,,12M_0_1_shp,APRD1,24,,APRD1,ARCO DO PRADO,41.1266671630726,-8.62512490655616,VNG1,http://www.stcp.pt/pt/viajar/paragens/?t=detalhe&paragem=APRD1,OUTBOUND_CITY_CENTER,OUTSIDE_PORTO_MUNICIPALITY_BOUNDARIES
12M,0,Sto. Ovídio,1,,12M_0_1_shp,RFON1,25,,RFON1,RIO DA FONTE,41.1250832884985,-8.62352773468244,VNG1,http://www.stcp.pt/pt/viajar/paragens/?t=detalhe&paragem=RFON1,OUTBOUND_CITY_CENTER,OUTSIDE_PORTO_MUNICIPALITY_BOUNDARIES
12M,0,Sto. Ovídio,1,,12M_0_1_shp,HRC1,26,,HRC1,HENRIQUE CERNACHE,41.1233610927801,-8.62249998952356,VNG1,http://www.stcp.pt/pt/viajar/paragens/?t=detalhe&paragem=HRC1,OUTBOUND_CITY_CENTER,OUTSIDE_PORTO_MUNICIPALITY_BOUNDARIES
12M,0,Sto. Ovídio,1,,12M_0_1_shp,AKI1,27,,AKI1,AKI,41.1221944135868,-8.62494448069821,VNG1,http://www.stcp.pt/pt/viajar/paragens/?t=detalhe&paragem=AKI1,OUTBOUND_CITY_CENTER,OUTSIDE_PORTO_MUNICIPALITY_BOUNDARIES
12M,0,Sto. Ovídio,1,,12M_0_1_shp,MAKR3,28,,MAKR3,MAKRO,41.1203610771577,-8.62672219141679,VNG1,http://www.stcp.pt/pt/viajar/paragens/?t=detalhe&paragem=MAKR3,OUTBOUND_CITY_CENTER,OUTSIDE_PORTO_MUNICIPALITY_BOUNDARIES
12M,0,Sto. Ovídio,1,,12M_0_1_shp,GSHP1,29,,GSHP1,GAIASHOPPING,41.1183055124528,-8.6222500468596,VNG1,http://www.stcp.pt/pt/viajar/paragens/?t=detalhe&paragem=GSHP1,OUTBOUND_CITY_CENTER,OUTSIDE_PORTO_MUNICIPALITY_BOUNDARIES
12M,0,Sto. Ovídio,1,,12M_0_1_shp,TELH1,30,,TELH1,TELHEIRA,41.1175555521688,-8.61900002436804,VNG1,http://www.stcp.pt/pt/viajar/paragens/?t=detalhe&paragem=TELH1,OUTBOUND_CITY_CENTER,OUTSIDE_PORTO_MUNICIPALITY_BOUNDARIES
12M,0,Sto. Ovídio,1,,12M_0_1_shp,INFH1,31,,INFH1,INFANTE D. HENRIQUE,41.1195278046782,-8.61524996840309,VNG1,http://www.stcp.pt/pt/viajar/paragens/?t=detalhe&paragem=INFH1,OUTBOUND_CITY_CENTER,OUTSIDE_PORTO_MUNICIPALITY_BOUNDARIES
12M,0,Sto. Ovídio,1,,12M_0_1_shp,SRRS1,32,,SRRS1,SOARES DOS REIS,41.1221110705957,-8.61255556577796,VNG1,http://www.stcp.pt/pt/viajar/paragens/?t=detalhe&paragem=SRRS1,OUTBOUND_CITY_CENTER,OUTSIDE_PORTO_MUNICIPALITY_BOUNDARIES
12M,0,Sto. Ovídio,1,,12M_0_1_shp,CSSR1,33,,CSSR1,C. SAÚDE S. REIS,41.1206110604356,-8.60988884082235,VNG1,http://www.stcp.pt/pt/viajar/paragens/?t=detalhe&paragem=CSSR1,OUTBOUND_CITY_CENTER,OUTSIDE_PORTO_MUNICIPALITY_BOUNDARIES
12M,0,Sto. Ovídio,1,,12M_0_1_shp,LGET1,34,,LGET1,L. ESTEVÃO TORRES,41.1183097874181,-8.60865944024744,VNG1,http://www.stcp.pt/pt/viajar/paragens/?t=detalhe&paragem=LGET1,OUTBOUND_CITY_CENTER,OUTSIDE_PORTO_MUNICIPALITY_BOUNDARIES
12M,0,Sto. Ovídio,1,,12M_0_1_shp,SO1,35,,SO1,S.TO OVÍDIO,41.1157499836457,-8.60697224853509,VNG1,http://www.stcp.pt/pt/viajar/paragens/?t=detalhe&paragem=SO1,OUTBOUND_CITY_CENTER,OUTSIDE_PORTO_MUNICIPALITY_BOUNDARIES
13M,1,Av.Aliados,1,,13M_1_1_shp,MATM1,1,,MATM1,MATOSINHOS MERCADO,41.1875245367875,-8.6933629070265,MTS1,http://www.stcp.pt/pt/viajar/paragens/?t=detalhe&paragem=MATM1,INBOUND_CITY_CENTER,OUTSIDE_PORTO_MUNICIPALITY_BOUNDARIES
13M,1,Av.Aliados,1,,13M_1_1_shp,MATM3,2,,MATM3,MATOSINHOS MERCADO,41.1872829853433,-8.69204352832545,MTS1,http://www.stcp.pt/pt/viajar/paragens/?t=detalhe&paragem=MATM3,INBOUND_CITY_CENTER,OUTSIDE_PORTO_MUNICIPALITY_BOUNDARIES
13M,1,Av.Aliados,1,,13M_1_1_shp,PDZ2,3,,PDZ2,1º DE DEZEMBRO,41.1847009942306,-8.69015933552905,MTS1,http://www.stcp.pt/pt/viajar/paragens/?t=detalhe&paragem=PDZ2,INBOUND_CITY_CENTER,OUTSIDE_PORTO_MUNICIPALITY_BOUNDARIES
13M,1,Av.Aliados,1,,13M_1_1_shp,GODH4,4,,GODH4,GODINHO,41.1827862942619,-8.6879723710778,MTS1,http://www.stcp.pt/pt/viajar/paragens/?t=detalhe&paragem=GODH4,INBOUND_CITY_CENTER,OUTSIDE_PORTO_MUNICIPALITY_BOUNDARIES
13M,1,Av.Aliados,1,,13M_1_1_shp,PQBT4,5,,PQBT4,PQ BASÍLIO TELES,41.1820393769515,-8.68511531519466,MTS1,http://www.stcp.pt/pt/viajar/paragens/?t=detalhe&paragem=PQBT4,INBOUND_CITY_CENTER,OUTSIDE_PORTO_MUNICIPALITY_BOUNDARIES
13M,1,Av.Aliados,1,,13M_1_1_shp,MATC2,6,,MATC2,MATOSINHOS (CMM),41.1817257473493,-8.68290148436502,MTS1,http://www.stcp.pt/pt/viajar/paragens/?t=detalhe&paragem=MATC2,INBOUND_CITY_CENTER,OUTSIDE_PORTO_MUNICIPALITY_BOUNDARIES
13M,1,Av.Aliados,1,,13M_1_1_shp,CRV2,7,,CRV2,CARCAVELOS,41.1795277441657,-8.68180557080025,MTS1,http://www.stcp.pt/pt/viajar/paragens/?t=detalhe&paragem=CRV2,INBOUND_CITY_CENTER,OUTSIDE_PORTO_MUNICIPALITY_BOUNDARIES
13M,1,Av.Aliados,1,,13M_1_1_shp,DNAP4,8,,DNAP4,D. NUNO A. PEREIRA,41.1790404133052,-8.67906887227367,MTS1,http://www.stcp.pt/pt/viajar/paragens/?t=detalhe&paragem=DNAP4,INBOUND_CITY_CENTER,OUTSIDE_PORTO_MUNICIPALITY_BOUNDARIES
13M,1,Av.Aliados,1,,13M_1_1_shp,ESGZ2,9,,ESGZ2,E. SEC. G. ZARCO,41.179166615397,-8.67641666704218,MTS1,http://www.stcp.pt/pt/viajar/paragens/?t=detalhe&paragem=ESGZ2,INBOUND_CITY_CENTER,OUTSIDE_PORTO_MUNICIPALITY_BOUNDARIES
13M,1,Av.Aliados,1,,13M_1_1_shp,PREA2,10,,PREA2,PARQUE DE REAL,41.1790555626291,-8.67263888953264,MTS1,http://www.stcp.pt/pt/viajar/paragens/?t=detalhe&paragem=PREA2,INBOUND_CITY_CENTER,OUTSIDE_PORTO_MUNICIPALITY_BOUNDARIES
13M,1,Av.Aliados,1,,13M_1_1_shp,QSEC2,11,,QSEC2,QUINTA SECA,41.1806388877115,-8.66649993391657,MTS1,http://www.stcp.pt/pt/viajar/paragens/?t=detalhe&paragem=QSEC2,INBOUND_CITY_CENTER,OUTSIDE_PORTO_MUNICIPALITY_BOUNDARIES
13M,1,Av.Aliados,1,,13M_1_1_shp,HSPH2,12,,HSPH2,HOSP. P. HISPANO,41.1806799858462,-8.66371013145192,MTS1,http://www.stcp.pt/pt/viajar/paragens/?t=detalhe&paragem=HSPH2,INBOUND_CITY_CENTER,OUTSIDE_PORTO_MUNICIPALITY_BOUNDARIES
13M,1,Av.Aliados,1,,13M_1_1_shp,AZC2,13,,AZC2,AZENHA DE CIMA,41.1799400145464,-8.66022852136574,MTS1,http://www.stcp.pt/pt/viajar/paragens/?t=detalhe&paragem=AZC2,INBOUND_CITY_CENTER,OUTSIDE_PORTO_MUNICIPALITY_BOUNDARIES
13M,1,Av.Aliados,1,,13M_1_1_shp,PREC4,14,,PREC4,PRECIOSA,41.1780642769783,-8.65825717707321,MTS1,http://www.stcp.pt/pt/viajar/paragens/?t=detalhe&paragem=PREC4,INBOUND_CITY_CENTER,OUTSIDE_PORTO_MUNICIPALITY_BOUNDARIES
13M,1,Av.Aliados,1,,13M_1_1_shp,AZC3,15,,AZC3,AZENHA DE CIMA,41.177161397578,-8.66068086505923,PRT2,http://www.stcp.pt/pt/viajar/paragens/?t=detalhe&paragem=AZC3,INBOUND_CITY_CENTER,OUTSIDE_PORTO_MUNICIPALITY_BOUNDARIES
13M,1,Av.Aliados,1,,13M_1_1_shp,HMGL5,16,,HMGL5,HOSP.MAGALHÃES LEMOS,41.1773279728121,-8.66379087189467,PRT2,http://www.stcp.pt/pt/viajar/paragens/?t=detalhe&paragem=HMGL5,INBOUND_CITY_CENTER,"União das freguesias de Aldoar, Foz do Douro e Nevogilde"
13M,1,Av.Aliados,1,,13M_1_1_shp,LDSM2,17,,LDSM2,LIDADOR-SOEIRO MENDES,41.1763860260505,-8.66408654709962,PRT2,http://www.stcp.pt/pt/viajar/paragens/?t=detalhe&paragem=LDSM2,INBOUND_CITY_CENTER,"União das freguesias de Aldoar, Foz do Douro e Nevogilde"
13M,1,Av.Aliados,1,,13M_1_1_shp,LDDM,18,,LDDM,LIDADOR / M. MONIZ,41.1749379973329,-8.66071732702761,PRT2,http://www.stcp.pt/pt/viajar/paragens/?t=detalhe&paragem=LDDM,INBOUND_CITY_CENTER,Ramalde
13M,1,Av.Aliados,1,,13M_1_1_shp,REV2,19,,REV2,REVILÃO,41.1732466794604,-8.66057216561517,PRT2,http://www.stcp.pt/pt/viajar/paragens/?t=detalhe&paragem=REV2,INBOUND_CITY_CENTER,"União das freguesias de Aldoar, Foz do Douro e Nevogilde"
13M,1,Av.Aliados,1,,13M_1_1_shp,BFTM2,20,,BFTM2,BR. FONTE DA MOURA,41.1710853761469,-8.65845310977672,PRT2,http://www.stcp.pt/pt/viajar/paragens/?t=detalhe&paragem=BFTM2,INBOUND_CITY_CENTER,"União das freguesias de Aldoar, Foz do Douro e Nevogilde"
13M,1,Av.Aliados,1,,13M_1_1_shp,ANTG2,21,,ANTG2,ANTUNES GUIMARÃES,41.1704028827062,-8.65582083889883,PRT2,http://www.stcp.pt/pt/viajar/paragens/?t=detalhe&paragem=ANTG2,INBOUND_CITY_CENTER,Ramalde
13M,1,Av.Aliados,1,,13M_1_1_shp,CSR2,22,,CSR2,C. SAÚDE RAMALDE,41.1694591956114,-8.65364829845305,PRT2,http://www.stcp.pt/pt/viajar/paragens/?t=detalhe&paragem=CSR2,INBOUND_CITY_CENTER,Ramalde
13M,1,Av.Aliados,1,,13M_1_1_shp,BRCP2,23,,BRCP2,BR. CAMPINAS,41.1689729880267,-8.6510529628459,PRT2,http://www.stcp.pt/pt/viajar/paragens/?t=detalhe&paragem=BRCP2,INBOUND_CITY_CENTER,Ramalde
13M,1,Av.Aliados,1,,13M_1_1_shp,CRM1,24,,CRM1,CASA DE RAMALDE,41.1682803793405,-8.64587341059192,PRT2,http://www.stcp.pt/pt/viajar/paragens/?t=detalhe&paragem=CRM1,INBOUND_CITY_CENTER,Ramalde
13M,1,Av.Aliados,1,,13M_1_1_shp,RBSS2,25,,RBSS2,ROT. DO BESSA,41.1645757705016,-8.63886218870307,PRT1,http://www.stcp.pt/pt/viajar/paragens/?t=detalhe&paragem=RBSS2,INBOUND_CITY_CENTER,Ramalde
13M,1,Av.Aliados,1,,13M_1_1_shp,SDP2,26,,SDP2,SIDÓNIO PAIS,41.1644542469111,-8.63709197525484,PRT1,http://www.stcp.pt/pt/viajar/paragens/?t=detalhe&paragem=SDP2,INBOUND_CITY_CENTER,Ramalde
13M,1,Av.Aliados,1,,13M_1_1_shp,MRS2,27,,MRS2,MOREIRA SÁ,41.1624135900816,-8.63291245443954,PRT1,http://www.stcp.pt/pt/viajar/paragens/?t=detalhe&paragem=MRS2,INBOUND_CITY_CENTER,Ramalde
13M,1,Av.Aliados,1,,13M_1_1_shp,BVCM3,28,,BVCM3,BOAVISTA CEMITÉRIO,41.1571636941751,-8.62999767663858,PRT1,http://www.stcp.pt/pt/viajar/paragens/?t=detalhe&paragem=BVCM3,INBOUND_CITY_CENTER,União das freguesias de Lordelo do Ouro e Massarelos
13M,1,Av.Aliados,1,,13M_1_1_shp,BS2,29,,BS2,BOAVISTA - B.SUCESSO,41.1553009155342,-8.62826100753222,PRT1,http://www.stcp.pt/pt/viajar/paragens/?t=detalhe&paragem=BS2,INBOUND_CITY_CENTER,União das freguesias de Lordelo do Ouro e Massarelos
13M,1,Av.Aliados,1,,13M_1_1_shp,PRG2,30,,PRG2,PR. DA GALIZA,41.1533385307041,-8.62652249724838,PRT1,http://www.stcp.pt/pt/viajar/paragens/?t=detalhe&paragem=PRG2,INBOUND_CITY_CENTER,União das freguesias de Lordelo do Ouro e Massarelos
13M,1,Av.Aliados,1,,13M_1_1_shp,PAL4,31,,PAL4,PALÁCIO,41.1483368190521,-8.62474143733427,PRT1,http://www.stcp.pt/pt/viajar/paragens/?t=detalhe&paragem=PAL4,INBOUND_CITY_CENTER,União das freguesias de Lordelo do Ouro e Massarelos
13M,1,Av.Aliados,1,,13M_1_1_shp,HSA,32,,HSA,HOSP.STO. ANTÓNIO,41.146488006884,-8.62020822884295,PRT1,http://www.stcp.pt/pt/viajar/paragens/?t=detalhe&paragem=HSA,INBOUND_CITY_CENTER,"União das freguesias de Cedofeita, Santo Ildefonso, Sé, Miragaia, São Nicolau e Vitória"
13M,1,Av.Aliados,1,,13M_1_1_shp,CORD4,33,,CORD4,CORDOARIA,41.1451016654134,-8.61618694297183,PRT1,http://www.stcp.pt/pt/viajar/paragens/?t=detalhe&paragem=CORD4,INBOUND_CITY_CENTER,"União das freguesias de Cedofeita, Santo Ildefonso, Sé, Miragaia, São Nicolau e Vitória"
13M,1,Av.Aliados,1,,13M_1_1_shp,PRFL1,34,,PRFL1,PR.FILIPA DE LENCASTRE,41.148219856669,-8.61367211199646,PRT1,http://www.stcp.pt/pt/viajar/paragens/?t=detalhe&paragem=PRFL1,INBOUND_CITY_CENTER,"União das freguesias de Cedofeita, Santo Ildefonso, Sé, Miragaia, São Nicolau e Vitória"
13M,1,Av.Aliados,1,,13M_1_1_shp,AAL1,35,,AAL1,AV.ALIADOS,41.1489444244748,-8.61127779731674,PRT1,http://www.stcp.pt/pt/viajar/paragens/?t=detalhe&paragem=AAL1,INBOUND_CITY_CENTER,"União das freguesias de Cedofeita, Santo Ildefonso, Sé, Miragaia, São Nicolau e Vitória"
13M,0,Matosinhos (Mercado),1,,13M_0_1_shp,AAL1,1,,AAL1,AV.ALIADOS,41.1489444244748,-8.61127779731674,PRT1,http://www.stcp.pt/pt/viajar/paragens/?t=detalhe&paragem=AAL1,OUTBOUND_CITY_CENTER,"União das freguesias de Cedofeita, Santo Ildefonso, Sé, Miragaia, São Nicolau e Vitória"
13M,0,Matosinhos (Mercado),1,,13M_0_1_shp,PRFL,2,,PRFL,PR.FILIPA DE LENCASTRE,41.1483046015824,-8.61276347355207,PRT1,http://www.stcp.pt/pt/viajar/paragens/?t=detalhe&paragem=PRFL,OUTBOUND_CITY_CENTER,"União das freguesias de Cedofeita, Santo Ildefonso, Sé, Miragaia, São Nicolau e Vitória"
13M,0,Matosinhos (Mercado),1,,13M_0_1_shp,GGF,3,,GGF,GUIL. G. FERNANDES,41.1475602128653,-8.61476664888298,PRT1,http://www.stcp.pt/pt/viajar/paragens/?t=detalhe&paragem=GGF,OUTBOUND_CITY_CENTER,"União das freguesias de Cedofeita, Santo Ildefonso, Sé, Miragaia, São Nicolau e Vitória"
13M,0,Matosinhos (Mercado),1,,13M_0_1_shp,CMO,4,,CMO,CARMO,41.1472276569054,-8.61695947381185,PRT1,http://www.stcp.pt/pt/viajar/paragens/?t=detalhe&paragem=CMO,OUTBOUND_CITY_CENTER,"União das freguesias de Cedofeita, Santo Ildefonso, Sé, Miragaia, São Nicolau e Vitória"
13M,0,Matosinhos (Mercado),1,,13M_0_1_shp,HSA5,5,,HSA5,HOSP. ST. ANTÓNIO,41.1477660933285,-8.6224501585514,PRT1,http://www.stcp.pt/pt/viajar/paragens/?t=detalhe&paragem=HSA5,OUTBOUND_CITY_CENTER,"União das freguesias de Cedofeita, Santo Ildefonso, Sé, Miragaia, São Nicolau e Vitória"
13M,0,Matosinhos (Mercado),1,,13M_0_1_shp,PAL3,6,,PAL3,PALÁCIO,41.1495118251151,-8.62553157155577,PRT1,http://www.stcp.pt/pt/viajar/paragens/?t=detalhe&paragem=PAL3,OUTBOUND_CITY_CENTER,União das freguesias de Lordelo do Ouro e Massarelos
13M,0,Matosinhos (Mercado),1,,13M_0_1_shp,PRG1,7,,PRG1,PR. DA GALIZA,41.1534444227942,-8.62633327866578,PRT1,http://www.stcp.pt/pt/viajar/paragens/?t=detalhe&paragem=PRG1,OUTBOUND_CITY_CENTER,União das freguesias de Lordelo do Ouro e Massarelos
13M,0,Matosinhos (Mercado),1,,13M_0_1_shp,BS1,8,,BS1,BOAVISTA - B.SUCESSO,41.156403474422,-8.62792954663119,PRT1,http://www.stcp.pt/pt/viajar/paragens/?t=detalhe&paragem=BS1,OUTBOUND_CITY_CENTER,"União das freguesias de Cedofeita, Santo Ildefonso, Sé, Miragaia, São Nicolau e Vitória"
13M,0,Matosinhos (Mercado),1,,13M_0_1_shp,BCM3,9,,BCM3,BOAVISTA-CASA DA MÚSICA,41.1594575409767,-8.628618576088,PRT1,http://www.stcp.pt/pt/viajar/paragens/?t=detalhe&paragem=BCM3,OUTBOUND_CITY_CENTER,"União das freguesias de Cedofeita, Santo Ildefonso, Sé, Miragaia, São Nicolau e Vitória"
13M,0,Matosinhos (Mercado),1,,13M_0_1_shp,GRC1,10,,GRC1,GRACIOSA,41.1629206119432,-8.62750244671068,PRT1,http://www.stcp.pt/pt/viajar/paragens/?t=detalhe&paragem=GRC1,OUTBOUND_CITY_CENTER,"União das freguesias de Cedofeita, Santo Ildefonso, Sé, Miragaia, São Nicolau e Vitória"
13M,0,Matosinhos (Mercado),1,,13M_0_1_shp,CSBV,11,,CSBV,CASA DE SAÚDE DA BOAVISTA,41.16447896729,-8.63210842357714,PRT1,http://www.stcp.pt/pt/viajar/paragens/?t=detalhe&paragem=CSBV,OUTBOUND_CITY_CENTER,Ramalde
13M,0,Matosinhos (Mercado),1,,13M_0_1_shp,SDP1,12,,SDP1,SIDÓNIO PAIS,41.1645634959404,-8.63700356983206,PRT1,http://www.stcp.pt/pt/viajar/paragens/?t=detalhe&paragem=SDP1,OUTBOUND_CITY_CENTER,Ramalde
13M,0,Matosinhos (Mercado),1,,13M_0_1_shp,FRB,13,,FRB,FRANCOS (BOMBEIROS),41.1704711675065,-8.64292613473066,PRT2,http://www.stcp.pt/pt/viajar/paragens/?t=detalhe&paragem=FRB,OUTBOUND_CITY_CENTER,Ramalde
13M,0,Matosinhos (Mercado),1,,13M_0_1_shp,CRM2,14,,CRM2,CASA DE RAMALDE,41.1683916692558,-8.64585378501513,PRT2,http://www.stcp.pt/pt/viajar/paragens/?t=detalhe&paragem=CRM2,OUTBOUND_CITY_CENTER,Ramalde
13M,0,Matosinhos (Mercado),1,,13M_0_1_shp,BRCP1,15,,BRCP1,BR. CAMPINAS,41.1690523846022,-8.65089772886141,PRT2,http://www.stcp.pt/pt/viajar/paragens/?t=detalhe&paragem=BRCP1,OUTBOUND_CITY_CENTER,Ramalde
13M,0,Matosinhos (Mercado),1,,13M_0_1_shp,CSR1,16,,CSR1,C. SAÚDE RAMALDE,41.1696914917374,-8.6538300739,PRT2,http://www.stcp.pt/pt/viajar/paragens/?t=detalhe&paragem=CSR1,OUTBOUND_CITY_CENTER,Ramalde
13M,0,Matosinhos (Mercado),1,,13M_0_1_shp,ANTG1,17,,ANTG1,ANTUNES GUIMARÃES,41.1705276036871,-8.65569933370543,PRT2,http://www.stcp.pt/pt/viajar/paragens/?t=detalhe&paragem=ANTG1,OUTBOUND_CITY_CENTER,Ramalde
13M,0,Matosinhos (Mercado),1,,13M_0_1_shp,BFTM1,18,,BFTM1,BR. FONTE DA MOURA,41.1711902224674,-8.65838590692081,PRT2,http://www.stcp.pt/pt/viajar/paragens/?t=detalhe&paragem=BFTM1,OUTBOUND_CITY_CENTER,"União das freguesias de Aldoar, Foz do Douro e Nevogilde"
13M,0,Matosinhos (Mercado),1,,13M_0_1_shp,REV1,19,,REV1,REVILÃO,41.1732150727518,-8.66037635836664,PRT2,http://www.stcp.pt/pt/viajar/paragens/?t=detalhe&paragem=REV1,OUTBOUND_CITY_CENTER,"União das freguesias de Aldoar, Foz do Douro e Nevogilde"
13M,0,Matosinhos (Mercado),1,,13M_0_1_shp,HMGL4,20,,HMGL4,HOSP.MAGALHÃES LEMOS,41.176337641555,-8.66155397357128,PRT2,http://www.stcp.pt/pt/viajar/paragens/?t=detalhe&paragem=HMGL4,OUTBOUND_CITY_CENTER,"União das freguesias de Aldoar, Foz do Douro e Nevogilde"
13M,0,Matosinhos (Mercado),1,,13M_0_1_shp,PREC3,21,,PREC3,PRECIOSA,41.1780488135616,-8.65807459508283,MTS1,http://www.stcp.pt/pt/viajar/paragens/?t=detalhe&paragem=PREC3,OUTBOUND_CITY_CENTER,OUTSIDE_PORTO_MUNICIPALITY_BOUNDARIES
13M,0,Matosinhos (Mercado),1,,13M_0_1_shp,AZC1,22,,AZC1,AZENHA DE CIMA,41.1801702482421,-8.6606218767427,MTS1,http://www.stcp.pt/pt/viajar/paragens/?t=detalhe&paragem=AZC1,OUTBOUND_CITY_CENTER,OUTSIDE_PORTO_MUNICIPALITY_BOUNDARIES
13M,0,Matosinhos (Mercado),1,,13M_0_1_shp,HSPH1,23,,HSPH1,HOSP. P. HISPANO,41.1808106402709,-8.66361191070577,MTS1,http://www.stcp.pt/pt/viajar/paragens/?t=detalhe&paragem=HSPH1,OUTBOUND_CITY_CENTER,OUTSIDE_PORTO_MUNICIPALITY_BOUNDARIES
13M,0,Matosinhos (Mercado),1,,13M_0_1_shp,QSEC1,24,,QSEC1,QUINTA SECA,41.1805288464246,-8.66890219075169,MTS1,http://www.stcp.pt/pt/viajar/paragens/?t=detalhe&paragem=QSEC1,OUTBOUND_CITY_CENTER,OUTSIDE_PORTO_MUNICIPALITY_BOUNDARIES
13M,0,Matosinhos (Mercado),1,,13M_0_1_shp,PREA1,25,,PREA1,PARQUE DE REAL,41.1796677710914,-8.67342216178619,MTS1,http://www.stcp.pt/pt/viajar/paragens/?t=detalhe&paragem=PREA1,OUTBOUND_CITY_CENTER,OUTSIDE_PORTO_MUNICIPALITY_BOUNDARIES
13M,0,Matosinhos (Mercado),1,,13M_0_1_shp,ESGZ1,26,,ESGZ1,E. SEC. G. ZARCO,41.1793611166246,-8.67683337544024,MTS1,http://www.stcp.pt/pt/viajar/paragens/?t=detalhe&paragem=ESGZ1,OUTBOUND_CITY_CENTER,OUTSIDE_PORTO_MUNICIPALITY_BOUNDARIES
13M,0,Matosinhos (Mercado),1,,13M_0_1_shp,DNAP3,27,,DNAP3,D. NUNO A. PEREIRA,41.1791839099238,-8.67958682158272,MTS1,http://www.stcp.pt/pt/viajar/paragens/?t=detalhe&paragem=DNAP3,OUTBOUND_CITY_CENTER,OUTSIDE_PORTO_MUNICIPALITY_BOUNDARIES
13M,0,Matosinhos (Mercado),1,,13M_0_1_shp,CRV1,28,,CRV1,CARCAVELOS,41.1798420919571,-8.68165243305373,MTS1,http://www.stcp.pt/pt/viajar/paragens/?t=detalhe&paragem=CRV1,OUTBOUND_CITY_CENTER,OUTSIDE_PORTO_MUNICIPALITY_BOUNDARIES
13M,0,Matosinhos (Mercado),1,,13M_0_1_shp,AFHQ3,29,,AFHQ3,AFONSO  HENRIQUES,41.1806435897497,-8.6832655687279,MTS1,http://www.stcp.pt/pt/viajar/paragens/?t=detalhe&paragem=AFHQ3,OUTBOUND_CITY_CENTER,OUTSIDE_PORTO_MUNICIPALITY_BOUNDARIES
13M,0,Matosinhos (Mercado),1,,13M_0_1_shp,ACD3,30,,ACD3,AFONSO CORDEIRO,41.1803323891564,-8.68703655203697,MTS1,http://www.stcp.pt/pt/viajar/paragens/?t=detalhe&paragem=ACD3,OUTBOUND_CITY_CENTER,OUTSIDE_PORTO_MUNICIPALITY_BOUNDARIES
13M,0,Matosinhos (Mercado),1,,13M_0_1_shp,MTSP1,31,,MTSP1,MATOSINHOS PRAIA,41.1801718527757,-8.68996010225385,MTS1,http://www.stcp.pt/pt/viajar/paragens/?t=detalhe&paragem=MTSP1,OUTBOUND_CITY_CENTER,OUTSIDE_PORTO_MUNICIPALITY_BOUNDARIES
13M,0,Matosinhos (Mercado),1,,13M_0_1_shp,GODH5,32,,GODH5,GODINHO,41.1818636678511,-8.6921643256376,MTS1,http://www.stcp.pt/pt/viajar/paragens/?t=detalhe&paragem=GODH5,OUTBOUND_CITY_CENTER,OUTSIDE_PORTO_MUNICIPALITY_BOUNDARIES
13M,0,Matosinhos (Mercado),1,,13M_0_1_shp,LOTA1,33,,LOTA1,LOTA,41.1835140846111,-8.69378358387119,MTS1,http://www.stcp.pt/pt/viajar/paragens/?t=detalhe&paragem=LOTA1,OUTBOUND_CITY_CENTER,OUTSIDE_PORTO_MUNICIPALITY_BOUNDARIES
13M,0,Matosinhos (Mercado),1,,13M_0_1_shp,SP1,34,,SP1,S. PEDRO,41.1853941137827,-8.69565459326705,MTS1,http://www.stcp.pt/pt/viajar/paragens/?t=detalhe&paragem=SP1,OUTBOUND_CITY_CENTER,OUTSIDE_PORTO_MUNICIPALITY_BOUNDARIES
13M,0,Matosinhos (Mercado),1,,13M_0_1_shp,MATM1,35,,MATM1,MATOSINHOS MERCADO,41.1875245367875,-8.6933629070265,MTS1,http://www.stcp.pt/pt/viajar/paragens/?t=detalhe&paragem=MATM1,OUTBOUND_CITY_CENTER,OUTSIDE_PORTO_MUNICIPALITY_BOUNDARIES
1M,1,Av. Aliados,1,,1M_1_1_shp,MTSP1,1,,MTSP1,MATOSINHOS PRAIA,41.1801718527757,-8.68996010225385,MTS1,http://www.stcp.pt/pt/viajar/paragens/?t=detalhe&paragem=MTSP1,INBOUND_CITY_CENTER,OUTSIDE_PORTO_MUNICIPALITY_BOUNDARIES
1M,1,Av. Aliados,1,,1M_1_1_shp,SAR2,2,,SAR2,SOUSA AROSO,41.1770608206086,-8.69014308572823,MTS1,http://www.stcp.pt/pt/viajar/paragens/?t=detalhe&paragem=SAR2,INBOUND_CITY_CENTER,OUTSIDE_PORTO_MUNICIPALITY_BOUNDARIES
1M,1,Av. Aliados,1,,1M_1_1_shp,PCID2,3,,PCID2,PR. CID. SALVADOR,41.1732851580982,-8.68927197735203,PRT2,http://www.stcp.pt/pt/viajar/paragens/?t=detalhe&paragem=PCID2,INBOUND_CITY_CENTER,"União das freguesias de Aldoar, Foz do Douro e Nevogilde"
1M,1,Av. Aliados,1,,1M_1_1_shp,ETRP2,4,,ETRP2,EDIF. TRANSPARENTE,41.1717924389624,-8.68776250176329,PRT2,http://www.stcp.pt/pt/viajar/paragens/?t=detalhe&paragem=ETRP2,INBOUND_CITY_CENTER,"União das freguesias de Aldoar, Foz do Douro e Nevogilde"
1M,1,Av. Aliados,1,,1M_1_1_shp,CQ8,5,,CQ8,CASTELO DO QUEIJO,41.1677648409648,-8.68940345421378,PRT2,http://www.stcp.pt/pt/viajar/paragens/?t=detalhe&paragem=CQ8,INBOUND_CITY_CENTER,"União das freguesias de Aldoar, Foz do Douro e Nevogilde"
1M,1,Av. Aliados,1,,1M_1_1_shp,TIM2,6,,TIM2,TIMOR,41.1651605674141,-8.68710616662598,PRT2,http://www.stcp.pt/pt/viajar/paragens/?t=detalhe&paragem=TIM2,INBOUND_CITY_CENTER,"União das freguesias de Aldoar, Foz do Douro e Nevogilde"
1M,1,Av. Aliados,1,,1M_1_1_shp,HMLM2,7,,HMLM2,HOMEM DO LEME,41.1623767228365,-8.68553566228784,PRT2,http://www.stcp.pt/pt/viajar/paragens/?t=detalhe&paragem=HMLM2,INBOUND_CITY_CENTER,"União das freguesias de Aldoar, Foz do Douro e Nevogilde"
1M,1,Av. Aliados,1,,1M_1_1_shp,MLH2,8,,MLH2,MOLHE,41.1595541326034,-8.68392850948585,PRT2,http://www.stcp.pt/pt/viajar/paragens/?t=detalhe&paragem=MLH2,INBOUND_CITY_CENTER,"União das freguesias de Aldoar, Foz do Douro e Nevogilde"
1M,1,Av. Aliados,1,,1M_1_1_shp,CRTO2,9,,CRTO2,CRASTO,41.1572979818452,-8.68211273867679,PRT2,http://www.stcp.pt/pt/viajar/paragens/?t=detalhe&paragem=CRTO2,INBOUND_CITY_CENTER,"União das freguesias de Aldoar, Foz do Douro e Nevogilde"
1M,1,Av. Aliados,1,,1M_1_1_shp,PGON2,10,,PGON2,PRAIA DE GONDARÉM,41.1554177647005,-8.68053527909622,PRT2,http://www.stcp.pt/pt/viajar/paragens/?t=detalhe&paragem=PGON2,INBOUND_CITY_CENTER,"União das freguesias de Aldoar, Foz do Douro e Nevogilde"
1M,1,Av. Aliados,1,,1M_1_1_shp,PING3,11,,PING3,PRAIA DOS INGLESES,41.152727358204,-8.67857091251848,PRT2,http://www.stcp.pt/pt/viajar/paragens/?t=detalhe&paragem=PING3,INBOUND_CITY_CENTER,"União das freguesias de Aldoar, Foz do Douro e Nevogilde"
1M,1,Av. Aliados,1,,1M_1_1_shp,SRLZ1,12,,SRLZ1,SENHORA DA LUZ,41.1500328932095,-8.67587643762635,PRT2,http://www.stcp.pt/pt/viajar/paragens/?t=detalhe&paragem=SRLZ1,INBOUND_CITY_CENTER,"União das freguesias de Aldoar, Foz do Douro e Nevogilde"
1M,1,Av. Aliados,1,,1M_1_1_shp,PING1,13,,PING1,PRAIA DOS INGLESES,41.1516235147649,-8.67690110011498,PRT2,http://www.stcp.pt/pt/viajar/paragens/?t=detalhe&paragem=PING1,INBOUND_CITY_CENTER,"União das freguesias de Aldoar, Foz do Douro e Nevogilde"
1M,1,Av. Aliados,1,,1M_1_1_shp,MFZ2,14,,MFZ2,MERCADO DA FOZ,41.1540205831205,-8.67391441127182,PRT2,http://www.stcp.pt/pt/viajar/paragens/?t=detalhe&paragem=MFZ2,INBOUND_CITY_CENTER,"União das freguesias de Aldoar, Foz do Douro e Nevogilde"
1M,1,Av. Aliados,1,,1M_1_1_shp,UC2,15,,UC2,UNIV. CATÓLICA,41.1534677972654,-8.67100091106503,PRT2,http://www.stcp.pt/pt/viajar/paragens/?t=detalhe&paragem=UC2,INBOUND_CITY_CENTER,"União das freguesias de Aldoar, Foz do Douro e Nevogilde"
1M,1,Av. Aliados,1,,1M_1_1_shp,PCL2,16,,PCL2,PADRE LUIS CABRAL,41.1515373387597,-8.66778580167502,PRT2,http://www.stcp.pt/pt/viajar/paragens/?t=detalhe&paragem=PCL2,INBOUND_CITY_CENTER,"União das freguesias de Aldoar, Foz do Douro e Nevogilde"
1M,1,Av. Aliados,1,,1M_1_1_shp,TRR4,17,,TRR4,TORRES,41.1505498952953,-8.66420076502974,PRT2,http://www.stcp.pt/pt/viajar/paragens/?t=detalhe&paragem=TRR4,INBOUND_CITY_CENTER,"União das freguesias de Aldoar, Foz do Douro e Nevogilde"
1M,1,Av. Aliados,1,,1M_1_1_shp,PT2,18,,PT2,PASTELEIRA,41.1504166783044,-8.66108335752012,PRT2,http://www.stcp.pt/pt/viajar/paragens/?t=detalhe&paragem=PT2,INBOUND_CITY_CENTER,União das freguesias de Lordelo do Ouro e Massarelos
1M,1,Av. Aliados,1,,1M_1_1_shp,PG2,19,,PG2,PAULO DA GAMA,41.1507012102192,-8.65864784494687,PRT2,http://www.stcp.pt/pt/viajar/paragens/?t=detalhe&paragem=PG2,INBOUND_CITY_CENTER,União das freguesias de Lordelo do Ouro e Massarelos
1M,1,Av. Aliados,1,,1M_1_1_shp,FLUN2,20,,FLUN2,FLUVIAL (NORTE),41.1521110808706,-8.65463888812061,PRT2,http://www.stcp.pt/pt/viajar/paragens/?t=detalhe&paragem=FLUN2,INBOUND_CITY_CENTER,União das freguesias de Lordelo do Ouro e Massarelos
1M,1,Av. Aliados,1,,1M_1_1_shp,PLM2,21,,PLM2,PALMEIRAS,41.1526362153838,-8.65133327586126,PRT2,http://www.stcp.pt/pt/viajar/paragens/?t=detalhe&paragem=PLM2,INBOUND_CITY_CENTER,União das freguesias de Lordelo do Ouro e Massarelos
1M,1,Av. Aliados,1,,1M_1_1_shp,LRD2,22,,LRD2,LORDELO,41.1541388652798,-8.6477221970907,PRT2,http://www.stcp.pt/pt/viajar/paragens/?t=detalhe&paragem=LRD2,INBOUND_CITY_CENTER,União das freguesias de Lordelo do Ouro e Massarelos
1M,1,Av. Aliados,1,,1M_1_1_shp,JB2,23,,JB2,JARDIM BOTÂNICO,41.1543888369379,-8.64372224073307,PRT1,http://www.stcp.pt/pt/viajar/paragens/?t=detalhe&paragem=JB2,INBOUND_CITY_CENTER,União das freguesias de Lordelo do Ouro e Massarelos
1M,1,Av. Aliados,1,,1M_1_1_shp,FCUP2,24,,FCUP2,FACULDADE DE CIÊNCIAS,41.1536144951703,-8.64103456565671,PRT1,http://www.stcp.pt/pt/viajar/paragens/?t=detalhe&paragem=FCUP2,INBOUND_CITY_CENTER,União das freguesias de Lordelo do Ouro e Massarelos
1M,1,Av. Aliados,1,,1M_1_1_shp,PLNT2,25,,PLNT2,PLANETÁRIO,41.15269444663,-8.63724995601711,PRT1,http://www.stcp.pt/pt/viajar/paragens/?t=detalhe&paragem=PLNT2,INBOUND_CITY_CENTER,União das freguesias de Lordelo do Ouro e Massarelos
1M,1,Av. Aliados,1,,1M_1_1_shp,GGT2,26,,GGT2,GÓLGOTA,41.1524444387637,-8.634111118052,PRT1,http://www.stcp.pt/pt/viajar/paragens/?t=detalhe&paragem=GGT2,INBOUND_CITY_CENTER,União das freguesias de Lordelo do Ouro e Massarelos
1M,1,Av. Aliados,1,,1M_1_1_shp,JM2,27,,JM2,JUNTA MASSARELOS,41.1525277785088,-8.63030556121167,PRT1,http://www.stcp.pt/pt/viajar/paragens/?t=detalhe&paragem=JM2,INBOUND_CITY_CENTER,União das freguesias de Lordelo do Ouro e Massarelos
1M,1,Av. Aliados,1,,1M_1_1_shp,DPV4,28,,DPV4,D.PEDRO V,41.1509438979551,-8.62950018175948,PRT1,http://www.stcp.pt/pt/viajar/paragens/?t=detalhe&paragem=DPV4,INBOUND_CITY_CENTER,União das freguesias de Lordelo do Ouro e Massarelos
1M,1,Av. Aliados,1,,1M_1_1_shp,SMAI2,29,,SMAI2,SALGUEIRO MAIA,41.1483888917069,-8.63169439349687,PRT1,http://www.stcp.pt/pt/viajar/paragens/?t=detalhe&paragem=SMAI2,INBOUND_CITY_CENTER,União das freguesias de Lordelo do Ouro e Massarelos
1M,1,Av. Aliados,1,,1M_1_1_shp,MCE2,30,,MCE2,MUSEU C. ELÉCTRICO,41.1465263768996,-8.63218781651207,PRT1,http://www.stcp.pt/pt/viajar/paragens/?t=detalhe&paragem=MCE2,INBOUND_CITY_CENTER,União das freguesias de Lordelo do Ouro e Massarelos
1M,1,Av. Aliados,1,,1M_1_1_shp,MON2,31,,MON2,MONCHIQUE,41.1446998322668,-8.62645948741977,PRT1,http://www.stcp.pt/pt/viajar/paragens/?t=detalhe&paragem=MON2,INBOUND_CITY_CENTER,União das freguesias de Lordelo do Ouro e Massarelos
1M,1,Av. Aliados,1,,1M_1_1_shp,ALFG2,32,,ALFG2,ALFÂNDEGA,41.143949847913,-8.62273725297333,PRT1,http://www.stcp.pt/pt/viajar/paragens/?t=detalhe&paragem=ALFG2,INBOUND_CITY_CENTER,"União das freguesias de Cedofeita, Santo Ildefonso, Sé, Miragaia, São Nicolau e Vitória"
1M,1,Av. Aliados,1,,1M_1_1_shp,MRG2,33,,MRG2,MIRAGAIA,41.1416720217297,-8.61907050006626,PRT1,http://www.stcp.pt/pt/viajar/paragens/?t=detalhe&paragem=MRG2,INBOUND_CITY_CENTER,"União das freguesias de Cedofeita, Santo Ildefonso, Sé, Miragaia, São Nicolau e Vitória"
1M,1,Av. Aliados,1,,1M_1_1_shp,RBRI2,34,,RBRI2,RIBEIRA (INFANTE),41.1405331519631,-8.61668169958564,PRT1,http://www.stcp.pt/pt/viajar/paragens/?t=detalhe&paragem=RBRI2,INBOUND_CITY_CENTER,"União das freguesias de Cedofeita, Santo Ildefonso, Sé, Miragaia, São Nicolau e Vitória"
1M,1,Av. Aliados,1,,1M_1_1_shp,MFB2,35,,MFB2,MERC. FERR. BORGES,41.1414689166682,-8.61437738558716,PRT1,http://www.stcp.pt/pt/viajar/paragens/?t=detalhe&paragem=MFB2,INBOUND_CITY_CENTER,"União das freguesias de Cedofeita, Santo Ildefonso, Sé, Miragaia, São Nicolau e Vitória"
1M,1,Av. Aliados,1,,1M_1_1_shp,MS1,36,,MS1,MOUZINHO SILVEIRA,41.1435833265365,-8.61297221493401,PRT1,http://www.stcp.pt/pt/viajar/paragens/?t=detalhe&paragem=MS1,INBOUND_CITY_CENTER,"União das freguesias de Cedofeita, Santo Ildefonso, Sé, Miragaia, São Nicolau e Vitória"
1M,1,Av. Aliados,1,,1M_1_1_shp,SBNT3,37,,SBNT3,EST. S.BENTO,41.1447777336355,-8.61133333540896,PRT1,http://www.stcp.pt/pt/viajar/paragens/?t=detalhe&paragem=SBNT3,INBOUND_CITY_CENTER,"União das freguesias de Cedofeita, Santo Ildefonso, Sé, Miragaia, São Nicolau e Vitória"
1M,1,Av. Aliados,1,,1M_1_1_shp,SDB5,38,,SDB5,SÁ DA BANDEIRA,41.1467500239324,-8.60916662691019,PRT1,http://www.stcp.pt/pt/viajar/paragens/?t=detalhe&paragem=SDB5,INBOUND_CITY_CENTER,"União das freguesias de Cedofeita, Santo Ildefonso, Sé, Miragaia, São Nicolau e Vitória"
1M,1,Av. Aliados,1,,1M_1_1_shp,AAL4,39,,AAL4,AV.ALIADOS,41.1485277270248,-8.61066664214757,PRT1,http://www.stcp.pt/pt/viajar/paragens/?t=detalhe&paragem=AAL4,INBOUND_CITY_CENTER,"União das freguesias de Cedofeita, Santo Ildefonso, Sé, Miragaia, São Nicolau e Vitória"
1M,1,Av. Aliados,1,,1M_1_1_shp,AL3,40,,AL3,AV. ALIADOS,41.1473646177743,-8.61147403739939,PRT1,http://www.stcp.pt/pt/viajar/paragens/?t=detalhe&paragem=AL3,INBOUND_CITY_CENTER,"União das freguesias de Cedofeita, Santo Ildefonso, Sé, Miragaia, São Nicolau e Vitória"
1M,0,Matosinhos (via Campo Alegre),1,,1M_0_1_shp,AL3,1,,AL3,AV. ALIADOS,41.1473646177743,-8.61147403739939,PRT1,http://www.stcp.pt/pt/viajar/paragens/?t=detalhe&paragem=AL3,OUTBOUND_CITY_CENTER,"União das freguesias de Cedofeita, Santo Ildefonso, Sé, Miragaia, São Nicolau e Vitória"
1M,0,Matosinhos (via Campo Alegre),1,,1M_0_1_shp,MS2,2,,MS2,MOUZINHO  SILVEIRA,41.1434377730167,-8.61337077626025,PRT1,http://www.stcp.pt/pt/viajar/paragens/?t=detalhe&paragem=MS2,OUTBOUND_CITY_CENTER,"União das freguesias de Cedofeita, Santo Ildefonso, Sé, Miragaia, São Nicolau e Vitória"
1M,0,Matosinhos (via Campo Alegre),1,,1M_0_1_shp,RBRI1,3,,RBRI1,RIBEIRA (INFANTE),41.1407831758468,-8.61698714802706,PRT1,http://www.stcp.pt/pt/viajar/paragens/?t=detalhe&paragem=RBRI1,OUTBOUND_CITY_CENTER,"União das freguesias de Cedofeita, Santo Ildefonso, Sé, Miragaia, São Nicolau e Vitória"
1M,0,Matosinhos (via Campo Alegre),1,,1M_0_1_shp,MRG1,4,,MRG1,MIRAGAIA,41.1414927165729,-8.61850233004762,PRT1,http://www.stcp.pt/pt/viajar/paragens/?t=detalhe&paragem=MRG1,OUTBOUND_CITY_CENTER,"União das freguesias de Cedofeita, Santo Ildefonso, Sé, Miragaia, São Nicolau e Vitória"
1M,0,Matosinhos (via Campo Alegre),1,,1M_0_1_shp,ALFG1,5,,ALFG1,ALFÂNDEGA,41.1438423528567,-8.6219720971298,PRT1,http://www.stcp.pt/pt/viajar/paragens/?t=detalhe&paragem=ALFG1,OUTBOUND_CITY_CENTER,"União das freguesias de Cedofeita, Santo Ildefonso, Sé, Miragaia, São Nicolau e Vitória"
1M,0,Matosinhos (via Campo Alegre),1,,1M_0_1_shp,MON1,6,,MON1,MONCHIQUE,41.1447242217408,-8.62723773345968,PRT1,http://www.stcp.pt/pt/viajar/paragens/?t=detalhe&paragem=MON1,OUTBOUND_CITY_CENTER,União das freguesias de Lordelo do Ouro e Massarelos
1M,0,Matosinhos (via Campo Alegre),1,,1M_0_1_shp,MCE1,7,,MCE1,MUSEU C. ELÉCTRICO,41.1467235211673,-8.63230283545897,PRT1,http://www.stcp.pt/pt/viajar/paragens/?t=detalhe&paragem=MCE1,OUTBOUND_CITY_CENTER,União das freguesias de Lordelo do Ouro e Massarelos
1M,0,Matosinhos (via Campo Alegre),1,,1M_0_1_shp,SMAI1,8,,SMAI1,SALGUEIRO MAIA,41.148666701264,-8.63129351101723,PRT1,http://www.stcp.pt/pt/viajar/paragens/?t=detalhe&paragem=SMAI1,OUTBOUND_CITY_CENTER,União das freguesias de Lordelo do Ouro e Massarelos
1M,0,Matosinhos (via Campo Alegre),1,,1M_0_1_shp,DPV3,9,,DPV3,D.PEDRO V,41.1510277876119,-8.62927781036694,PRT1,http://www.stcp.pt/pt/viajar/paragens/?t=detalhe&paragem=DPV3,OUTBOUND_CITY_CENTER,União das freguesias de Lordelo do Ouro e Massarelos
1M,0,Matosinhos (via Campo Alegre),1,,1M_0_1_shp,JM1,10,,JM1,JUNTA MASSARELOS,41.1526941731599,-8.63122138218141,PRT1,http://www.stcp.pt/pt/viajar/paragens/?t=detalhe&paragem=JM1,OUTBOUND_CITY_CENTER,União das freguesias de Lordelo do Ouro e Massarelos
1M,0,Matosinhos (via Campo Alegre),1,,1M_0_1_shp,GGT1,11,,GGT1,GÓLGOTA,41.1526388557557,-8.63369445588376,PRT1,http://www.stcp.pt/pt/viajar/paragens/?t=detalhe&paragem=GGT1,OUTBOUND_CITY_CENTER,União das freguesias de Lordelo do Ouro e Massarelos
1M,0,Matosinhos (via Campo Alegre),1,,1M_0_1_shp,PLNT1,12,,PLNT1,PLANETÁRIO,41.1530942658215,-8.63828886750567,PRT1,http://www.stcp.pt/pt/viajar/paragens/?t=detalhe&paragem=PLNT1,OUTBOUND_CITY_CENTER,União das freguesias de Lordelo do Ouro e Massarelos
1M,0,Matosinhos (via Campo Alegre),1,,1M_0_1_shp,FCUP1,13,,FCUP1,FACULDADE DE CIÊNCIAS,41.1538376681773,-8.6413089854877,PRT1,http://www.stcp.pt/pt/viajar/paragens/?t=detalhe&paragem=FCUP1,OUTBOUND_CITY_CENTER,União das freguesias de Lordelo do Ouro e Massarelos
1M,0,Matosinhos (via Campo Alegre),1,,1M_0_1_shp,JB1,14,,JB1,JARDIM BOTÂNICO,41.1545278010364,-8.64422225165835,PRT1,http://www.stcp.pt/pt/viajar/paragens/?t=detalhe&paragem=JB1,OUTBOUND_CITY_CENTER,União das freguesias de Lordelo do Ouro e Massarelos
1M,0,Matosinhos (via Campo Alegre),1,,1M_0_1_shp,LRD1,15,,LRD1,LORDELO,41.154388913035,-8.64902771034446,PRT2,http://www.stcp.pt/pt/viajar/paragens/?t=detalhe&paragem=LRD1,OUTBOUND_CITY_CENTER,União das freguesias de Lordelo do Ouro e Massarelos
1M,0,Matosinhos (via Campo Alegre),1,,1M_0_1_shp,PLM1,16,,PLM1,PALMEIRAS,41.1523560226214,-8.65210707261166,PRT2,http://www.stcp.pt/pt/viajar/paragens/?t=detalhe&paragem=PLM1,OUTBOUND_CITY_CENTER,União das freguesias de Lordelo do Ouro e Massarelos
1M,0,Matosinhos (via Campo Alegre),1,,1M_0_1_shp,FLUN1,17,,FLUN1,FLUVIAL (NORTE),41.152138902653,-8.65519448806506,PRT2,http://www.stcp.pt/pt/viajar/paragens/?t=detalhe&paragem=FLUN1,OUTBOUND_CITY_CENTER,União das freguesias de Lordelo do Ouro e Massarelos
1M,0,Matosinhos (via Campo Alegre),1,,1M_0_1_shp,PG1,18,,PG1,PAULO DA GAMA,41.1508631373059,-8.65856241680021,PRT2,http://www.stcp.pt/pt/viajar/paragens/?t=detalhe&paragem=PG1,OUTBOUND_CITY_CENTER,União das freguesias de Lordelo do Ouro e Massarelos
1M,0,Matosinhos (via Campo Alegre),1,,1M_0_1_shp,PT3,19,,PT3,PASTELEIRA,41.1504856807218,-8.66148834475263,PRT2,http://www.stcp.pt/pt/viajar/paragens/?t=detalhe&paragem=PT3,OUTBOUND_CITY_CENTER,União das freguesias de Lordelo do Ouro e Massarelos
1M,0,Matosinhos (via Campo Alegre),1,,1M_0_1_shp,TRR3,20,,TRR3,TORRES,41.1507195490416,-8.66452901978327,PRT2,http://www.stcp.pt/pt/viajar/paragens/?t=detalhe&paragem=TRR3,OUTBOUND_CITY_CENTER,"União das freguesias de Aldoar, Foz do Douro e Nevogilde"
1M,0,Matosinhos (via Campo Alegre),1,,1M_0_1_shp,PCL1,21,,PCL1,PADRE LUIS CABRAL,41.1518055810922,-8.66805554799815,PRT2,http://www.stcp.pt/pt/viajar/paragens/?t=detalhe&paragem=PCL1,OUTBOUND_CITY_CENTER,"União das freguesias de Aldoar, Foz do Douro e Nevogilde"
1M,0,Matosinhos (via Campo Alegre),1,,1M_0_1_shp,UC1,22,,UC1,UNIV. CATÓLICA,41.1535381595891,-8.67091559374689,PRT2,http://www.stcp.pt/pt/viajar/paragens/?t=detalhe&paragem=UC1,OUTBOUND_CITY_CENTER,"União das freguesias de Aldoar, Foz do Douro e Nevogilde"
1M,0,Matosinhos (via Campo Alegre),1,,1M_0_1_shp,MFZ1,23,,MFZ1,MERCADO DA FOZ,41.155047505215,-8.67334280576561,PRT2,http://www.stcp.pt/pt/viajar/paragens/?t=detalhe&paragem=MFZ1,OUTBOUND_CITY_CENTER,"União das freguesias de Aldoar, Foz do Douro e Nevogilde"
1M,0,Matosinhos (via Campo Alegre),1,,1M_0_1_shp,PLUZ1,24,,PLUZ1,PRAIA DA LUZ,41.1536263968819,-8.67878721853992,PRT2,http://www.stcp.pt/pt/viajar/paragens/?t=detalhe&paragem=PLUZ1,OUTBOUND_CITY_CENTER,"União das freguesias de Aldoar, Foz do Douro e Nevogilde"
1M,0,Matosinhos (via Campo Alegre),1,,1M_0_1_shp,PGON1,25,,PGON1,PRAIA DE GONDARÉM,41.1556231510132,-8.68045979195926,PRT2,http://www.stcp.pt/pt/viajar/paragens/?t=detalhe&paragem=PGON1,OUTBOUND_CITY_CENTER,"União das freguesias de Aldoar, Foz do Douro e Nevogilde"
1M,0,Matosinhos (via Campo Alegre),1,,1M_0_1_shp,CRTO1,26,,CRTO1,CRASTO,41.1574340199481,-8.68198413450918,PRT2,http://www.stcp.pt/pt/viajar/paragens/?t=detalhe&paragem=CRTO1,OUTBOUND_CITY_CENTER,"União das freguesias de Aldoar, Foz do Douro e Nevogilde"
1M,0,Matosinhos (via Campo Alegre),1,,1M_0_1_shp,MLH1,27,,MLH1,MOLHE,41.159762222531,-8.68387175641952,PRT2,http://www.stcp.pt/pt/viajar/paragens/?t=detalhe&paragem=MLH1,OUTBOUND_CITY_CENTER,"União das freguesias de Aldoar, Foz do Douro e Nevogilde"
1M,0,Matosinhos (via Campo Alegre),1,,1M_0_1_shp,HMLM3,28,,HMLM3,HOMEM DO LEME,41.1634699473892,-8.68596224289423,PRT2,http://www.stcp.pt/pt/viajar/paragens/?t=detalhe&paragem=HMLM3,OUTBOUND_CITY_CENTER,"União das freguesias de Aldoar, Foz do Douro e Nevogilde"
1M,0,Matosinhos (via Campo Alegre),1,,1M_0_1_shp,TIM1,29,,TIM1,TIMOR,41.1656022698183,-8.68717161615589,PRT2,http://www.stcp.pt/pt/viajar/paragens/?t=detalhe&paragem=TIM1,OUTBOUND_CITY_CENTER,"União das freguesias de Aldoar, Foz do Douro e Nevogilde"
1M,0,Matosinhos (via Campo Alegre),1,,1M_0_1_shp,CQ5,30,,CQ5,SEA LIFE CASTELO DO QUEIJO,41.168223811333,-8.68788939145406,PRT2,http://www.stcp.pt/pt/viajar/paragens/?t=detalhe&paragem=CQ5,OUTBOUND_CITY_CENTER,"União das freguesias de Aldoar, Foz do Douro e Nevogilde"
1M,0,Matosinhos (via Campo Alegre),1,,1M_0_1_shp,PCID3,31,,PCID3,PR. CID. SALVADOR,41.1726827335817,-8.68818174561753,PRT2,http://www.stcp.pt/pt/viajar/paragens/?t=detalhe&paragem=PCID3,OUTBOUND_CITY_CENTER,"União das freguesias de Aldoar, Foz do Douro e Nevogilde"
1M,0,Matosinhos (via Campo Alegre),1,,1M_0_1_shp,PCID1,32,,PCID1,PR. CID. SALVADOR,41.1738230646216,-8.68860287934331,PRT2,http://www.stcp.pt/pt/viajar/paragens/?t=detalhe&paragem=PCID1,OUTBOUND_CITY_CENTER,OUTSIDE_PORTO_MUNICIPALITY_BOUNDARIES
1M,0,Matosinhos (via Campo Alegre),1,,1M_0_1_shp,SAR1,33,,SAR1,SOUSA AROSO,41.1761450071133,-8.68895169128895,MTS1,http://www.stcp.pt/pt/viajar/paragens/?t=detalhe&paragem=SAR1,OUTBOUND_CITY_CENTER,OUTSIDE_PORTO_MUNICIPALITY_BOUNDARIES
1M,0,Matosinhos (via Campo Alegre),1,,1M_0_1_shp,AVM1,34,,AVM1,AV. MENÉRES,41.1780822277535,-8.68920121155566,MTS1,http://www.stcp.pt/pt/viajar/paragens/?t=detalhe&paragem=AVM1,OUTBOUND_CITY_CENTER,OUTSIDE_PORTO_MUNICIPALITY_BOUNDARIES
1M,0,Matosinhos (via Campo Alegre),1,,1M_0_1_shp,MTSP1,35,,MTSP1,MATOSINHOS PRAIA,41.1801718527757,-8.68996010225385,MTS1,http://www.stcp.pt/pt/viajar/paragens/?t=detalhe&paragem=MTSP1,OUTBOUND_CITY_CENTER,OUTSIDE_PORTO_MUNICIPALITY_BOUNDARIES
201,1,Trindade,1,,201_1_1_shp,VIS3,1,,VIS3,VISO,41.1778055325872,-8.64222219925433,PRT2,http://www.stcp.pt/pt/viajar/paragens/?t=detalhe&paragem=VIS3,INBOUND_CITY_CENTER,Ramalde
201,1,Trindade,1,,201_1_1_shp,VIS4,2,,VIS4,VISO,41.1774999431537,-8.6434167007391,PRT2,http://www.stcp.pt/pt/viajar/paragens/?t=detalhe&paragem=VIS4,INBOUND_CITY_CENTER,Ramalde
201,1,Trindade,1,,201_1_1_shp,VIS1,3,,VIS1,VISO (METRO),41.1786603631807,-8.64532898484229,PRT2,http://www.stcp.pt/pt/viajar/paragens/?t=detalhe&paragem=VIS1,INBOUND_CITY_CENTER,Ramalde
201,1,Trindade,1,,201_1_1_shp,IMTT2,4,,IMTT2,IMTT,41.1785360809621,-8.64921818159246,PRT2,http://www.stcp.pt/pt/viajar/paragens/?t=detalhe&paragem=IMTT2,INBOUND_CITY_CENTER,Ramalde
201,1,Trindade,1,,201_1_1_shp,MPAZ7,5,,MPAZ7,MAN.P.AZEVEDO 3,41.1760325167497,-8.65208376269271,PRT2,http://www.stcp.pt/pt/viajar/paragens/?t=detalhe&paragem=MPAZ7,INBOUND_CITY_CENTER,Ramalde
201,1,Trindade,1,,201_1_1_shp,EZC2,6,,EZC2,EZEQUIEL CAMPOS,41.1744018455506,-8.65405514999967,PRT2,http://www.stcp.pt/pt/viajar/paragens/?t=detalhe&paragem=EZC2,INBOUND_CITY_CENTER,Ramalde
201,1,Trindade,1,,201_1_1_shp,PRO2,7,,PRO2,PEREIRÓ,41.1724829236104,-8.65566831359889,PRT2,http://www.stcp.pt/pt/viajar/paragens/?t=detalhe&paragem=PRO2,INBOUND_CITY_CENTER,Ramalde
201,1,Trindade,1,,201_1_1_shp,LDD2,8,,LDD2,LIDADOR,41.1703065341663,-8.65748178273337,PRT2,http://www.stcp.pt/pt/viajar/paragens/?t=detalhe&paragem=LDD2,INBOUND_CITY_CENTER,"União das freguesias de Aldoar, Foz do Douro e Nevogilde"
201,1,Trindade,1,,201_1_1_shp,CRRP2,9,,CRRP2,CORREIA PINTO,41.1688129950066,-8.65876439207002,PRT2,http://www.stcp.pt/pt/viajar/paragens/?t=detalhe&paragem=CRRP2,INBOUND_CITY_CENTER,"União das freguesias de Aldoar, Foz do Douro e Nevogilde"
201,1,Trindade,1,,201_1_1_shp,BRV2,10,,BRV2,BAIRRO VILARINHA,41.1672045428389,-8.66006758804244,PRT2,http://www.stcp.pt/pt/viajar/paragens/?t=detalhe&paragem=BRV2,INBOUND_CITY_CENTER,"União das freguesias de Aldoar, Foz do Douro e Nevogilde"
201,1,Trindade,1,,201_1_1_shp,FTM2,11,,FTM2,FONTE DA MOURA,41.164191487547,-8.66264612362605,PRT2,http://www.stcp.pt/pt/viajar/paragens/?t=detalhe&paragem=FTM2,INBOUND_CITY_CENTER,"União das freguesias de Aldoar, Foz do Douro e Nevogilde"
201,1,Trindade,1,,201_1_1_shp,PNV3,12,,PNV3,PAULO NOVAIS,41.1630604979622,-8.66003336218741,PRT2,http://www.stcp.pt/pt/viajar/paragens/?t=detalhe&paragem=PNV3,INBOUND_CITY_CENTER,União das freguesias de Lordelo do Ouro e Massarelos
201,1,Trindade,1,,201_1_1_shp,SRV4,13,,SRV4,SERRALVES,41.1625747192492,-8.65745432109152,PRT2,http://www.stcp.pt/pt/viajar/paragens/?t=detalhe&paragem=SRV4,INBOUND_CITY_CENTER,União das freguesias de Lordelo do Ouro e Massarelos
201,1,Trindade,1,,201_1_1_shp,PINM3,14,,PINM3,PINHEIRO MANSO,41.1618664412641,-8.65287641523893,PRT2,http://www.stcp.pt/pt/viajar/paragens/?t=detalhe&paragem=PINM3,INBOUND_CITY_CENTER,União das freguesias de Lordelo do Ouro e Massarelos
201,1,Trindade,1,,201_1_1_shp,FOCO2,15,,FOCO2,FOCO,41.1608745279265,-8.64753456981373,PRT1,http://www.stcp.pt/pt/viajar/paragens/?t=detalhe&paragem=FOCO2,INBOUND_CITY_CENTER,União das freguesias de Lordelo do Ouro e Massarelos
201,1,Trindade,1,,201_1_1_shp,BSS2,16,,BSS2,BESSA,41.1602886199967,-8.64414439085313,PRT1,http://www.stcp.pt/pt/viajar/paragens/?t=detalhe&paragem=BSS2,INBOUND_CITY_CENTER,União das freguesias de Lordelo do Ouro e Massarelos
201,1,Trindade,1,,201_1_1_shp,ACRD2,17,,ACRD2,ANTÓNIO CARDOSO,41.1596101652421,-8.63989132226471,PRT1,http://www.stcp.pt/pt/viajar/paragens/?t=detalhe&paragem=ACRD2,INBOUND_CITY_CENTER,União das freguesias de Lordelo do Ouro e Massarelos
201,1,Trindade,1,,201_1_1_shp,AGM2,18,,AGM2,AGRAMONTE,41.1586890734198,-8.63444150104811,PRT1,http://www.stcp.pt/pt/viajar/paragens/?t=detalhe&paragem=AGM2,INBOUND_CITY_CENTER,União das freguesias de Lordelo do Ouro e Massarelos
201,1,Trindade,1,,201_1_1_shp,BVCM3,19,,BVCM3,BOAVISTA CEMITÉRIO,41.1571636941751,-8.62999767663858,PRT1,http://www.stcp.pt/pt/viajar/paragens/?t=detalhe&paragem=BVCM3,INBOUND_CITY_CENTER,União das freguesias de Lordelo do Ouro e Massarelos
201,1,Trindade,1,,201_1_1_shp,BS2,20,,BS2,BOAVISTA - B.SUCESSO,41.1553009155342,-8.62826100753222,PRT1,http://www.stcp.pt/pt/viajar/paragens/?t=detalhe&paragem=BS2,INBOUND_CITY_CENTER,União das freguesias de Lordelo do Ouro e Massarelos
201,1,Trindade,1,,201_1_1_shp,PRG2,21,,PRG2,PR. DA GALIZA,41.1533385307041,-8.62652249724838,PRT1,http://www.stcp.pt/pt/viajar/paragens/?t=detalhe&paragem=PRG2,INBOUND_CITY_CENTER,União das freguesias de Lordelo do Ouro e Massarelos
201,1,Trindade,1,,201_1_1_shp,PAL4,22,,PAL4,PALÁCIO,41.1483368190521,-8.62474143733427,PRT1,http://www.stcp.pt/pt/viajar/paragens/?t=detalhe&paragem=PAL4,INBOUND_CITY_CENTER,União das freguesias de Lordelo do Ouro e Massarelos
201,1,Trindade,1,,201_1_1_shp,HSA,23,,HSA,HOSP.STO. ANTÓNIO,41.146488006884,-8.62020822884295,PRT1,http://www.stcp.pt/pt/viajar/paragens/?t=detalhe&paragem=HSA,INBOUND_CITY_CENTER,"União das freguesias de Cedofeita, Santo Ildefonso, Sé, Miragaia, São Nicolau e Vitória"
201,1,Trindade,1,,201_1_1_shp,CORD7,24,,CORD7,CORDOARIA,41.1451907726728,-8.61600249160658,PRT1,http://www.stcp.pt/pt/viajar/paragens/?t=detalhe&paragem=CORD7,INBOUND_CITY_CENTER,"União das freguesias de Cedofeita, Santo Ildefonso, Sé, Miragaia, São Nicolau e Vitória"
201,1,Trindade,1,,201_1_1_shp,PRFL1,25,,PRFL1,PR.FILIPA DE LENCASTRE,41.148219856669,-8.61367211199646,PRT1,http://www.stcp.pt/pt/viajar/paragens/?t=detalhe&paragem=PRFL1,INBOUND_CITY_CENTER,"União das freguesias de Cedofeita, Santo Ildefonso, Sé, Miragaia, São Nicolau e Vitória"
201,1,Trindade,1,,201_1_1_shp,1AL2,26,,1AL2,AV.ALIADOS,41.1495147366521,-8.6100690279121,PRT1,http://www.stcp.pt/pt/viajar/paragens/?t=detalhe&paragem=1AL2,INBOUND_CITY_CENTER,"União das freguesias de Cedofeita, Santo Ildefonso, Sé, Miragaia, São Nicolau e Vitória"
201,1,Trindade,1,,201_1_1_shp,TRD6,27,,TRD6,TRINDADE,41.1510325684057,-8.61085378553862,PRT1,http://www.stcp.pt/pt/viajar/paragens/?t=detalhe&paragem=TRD6,INBOUND_CITY_CENTER,"União das freguesias de Cedofeita, Santo Ildefonso, Sé, Miragaia, São Nicolau e Vitória"
201,0,Viso,1,,201_0_1_shp,TRD6,1,,TRD6,TRINDADE,41.1510325684057,-8.61085378553862,PRT1,http://www.stcp.pt/pt/viajar/paragens/?t=detalhe&paragem=TRD6,OUTBOUND_CITY_CENTER,"União das freguesias de Cedofeita, Santo Ildefonso, Sé, Miragaia, São Nicolau e Vitória"
201,0,Viso,1,,201_0_1_shp,PRFL,2,,PRFL,PR.FILIPA DE LENCASTRE,41.1483046015824,-8.61276347355207,PRT1,http://www.stcp.pt/pt/viajar/paragens/?t=detalhe&paragem=PRFL,OUTBOUND_CITY_CENTER,"União das freguesias de Cedofeita, Santo Ildefonso, Sé, Miragaia, São Nicolau e Vitória"
201,0,Viso,1,,201_0_1_shp,GGF,3,,GGF,GUIL. G. FERNANDES,41.1475602128653,-8.61476664888298,PRT1,http://www.stcp.pt/pt/viajar/paragens/?t=detalhe&paragem=GGF,OUTBOUND_CITY_CENTER,"União das freguesias de Cedofeita, Santo Ildefonso, Sé, Miragaia, São Nicolau e Vitória"
201,0,Viso,1,,201_0_1_shp,CMO,4,,CMO,CARMO,41.1472276569054,-8.61695947381185,PRT1,http://www.stcp.pt/pt/viajar/paragens/?t=detalhe&paragem=CMO,OUTBOUND_CITY_CENTER,"União das freguesias de Cedofeita, Santo Ildefonso, Sé, Miragaia, São Nicolau e Vitória"
201,0,Viso,1,,201_0_1_shp,HSA5,5,,HSA5,HOSP. ST. ANTÓNIO,41.1477660933285,-8.6224501585514,PRT1,http://www.stcp.pt/pt/viajar/paragens/?t=detalhe&paragem=HSA5,OUTBOUND_CITY_CENTER,"União das freguesias de Cedofeita, Santo Ildefonso, Sé, Miragaia, São Nicolau e Vitória"
201,0,Viso,1,,201_0_1_shp,PAL3,6,,PAL3,PALÁCIO,41.1495118251151,-8.62553157155577,PRT1,http://www.stcp.pt/pt/viajar/paragens/?t=detalhe&paragem=PAL3,OUTBOUND_CITY_CENTER,União das freguesias de Lordelo do Ouro e Massarelos
201,0,Viso,1,,201_0_1_shp,PRG1,7,,PRG1,PR. DA GALIZA,41.1534444227942,-8.62633327866578,PRT1,http://www.stcp.pt/pt/viajar/paragens/?t=detalhe&paragem=PRG1,OUTBOUND_CITY_CENTER,União das freguesias de Lordelo do Ouro e Massarelos
201,0,Viso,1,,201_0_1_shp,BS1,8,,BS1,BOAVISTA - B.SUCESSO,41.156403474422,-8.62792954663119,PRT1,http://www.stcp.pt/pt/viajar/paragens/?t=detalhe&paragem=BS1,OUTBOUND_CITY_CENTER,"União das freguesias de Cedofeita, Santo Ildefonso, Sé, Miragaia, São Nicolau e Vitória"
201,0,Viso,1,,201_0_1_shp,BCM1,9,,BCM1,BOAVISTA-CASA DA MÚSICA,41.1589508076194,-8.62942622189796,PRT1,http://www.stcp.pt/pt/viajar/paragens/?t=detalhe&paragem=BCM1,OUTBOUND_CITY_CENTER,"União das freguesias de Cedofeita, Santo Ildefonso, Sé, Miragaia, São Nicolau e Vitória"
201,0,Viso,1,,201_0_1_shp,AGM1,10,,AGM1,AGRAMONTE,41.1589479051451,-8.63459526400112,PRT1,http://www.stcp.pt/pt/viajar/paragens/?t=detalhe&paragem=AGM1,OUTBOUND_CITY_CENTER,"União das freguesias de Cedofeita, Santo Ildefonso, Sé, Miragaia, São Nicolau e Vitória"
201,0,Viso,1,,201_0_1_shp,ACRD1,11,,ACRD1,ANTÓNIO CARDOSO,41.1598429859494,-8.63991837818518,PRT1,http://www.stcp.pt/pt/viajar/paragens/?t=detalhe&paragem=ACRD1,OUTBOUND_CITY_CENTER,União das freguesias de Lordelo do Ouro e Massarelos
201,0,Viso,1,,201_0_1_shp,BSS1,12,,BSS1,BESSA,41.1604216166896,-8.64347488431067,PRT1,http://www.stcp.pt/pt/viajar/paragens/?t=detalhe&paragem=BSS1,OUTBOUND_CITY_CENTER,Ramalde
201,0,Viso,1,,201_0_1_shp,FOCO1,13,,FOCO1,FOCO,41.1611110785907,-8.64747220455906,PRT1,http://www.stcp.pt/pt/viajar/paragens/?t=detalhe&paragem=FOCO1,OUTBOUND_CITY_CENTER,Ramalde
201,0,Viso,1,,201_0_1_shp,PINM1,14,,PINM1,PINHEIRO MANSO,41.1618537554687,-8.65191766202096,PRT2,http://www.stcp.pt/pt/viajar/paragens/?t=detalhe&paragem=PINM1,OUTBOUND_CITY_CENTER,Ramalde
201,0,Viso,1,,201_0_1_shp,SRV3,15,,SRV3,SERRALVES,41.162755572606,-8.65746351053319,PRT2,http://www.stcp.pt/pt/viajar/paragens/?t=detalhe&paragem=SRV3,OUTBOUND_CITY_CENTER,Ramalde
201,0,Viso,1,,201_0_1_shp,PNV2,16,,PNV2,PAULO NOVAIS,41.1631276978829,-8.66010574840154,PRT2,http://www.stcp.pt/pt/viajar/paragens/?t=detalhe&paragem=PNV2,OUTBOUND_CITY_CENTER,Ramalde
201,0,Viso,1,,201_0_1_shp,FTM1,17,,FTM1,FONTE DA MOURA,41.1645050753706,-8.66214428637694,PRT2,http://www.stcp.pt/pt/viajar/paragens/?t=detalhe&paragem=FTM1,OUTBOUND_CITY_CENTER,Ramalde
201,0,Viso,1,,201_0_1_shp,BRV1,18,,BRV1,BAIRRO VILARINHA,41.1670648844665,-8.65998961103754,PRT2,http://www.stcp.pt/pt/viajar/paragens/?t=detalhe&paragem=BRV1,OUTBOUND_CITY_CENTER,Ramalde
201,0,Viso,1,,201_0_1_shp,LDD1,19,,LDD1,LIDADOR,41.1697984104719,-8.6576823213827,PRT2,http://www.stcp.pt/pt/viajar/paragens/?t=detalhe&paragem=LDD1,OUTBOUND_CITY_CENTER,Ramalde
201,0,Viso,1,,201_0_1_shp,PRO1,20,,PRO1,PEREIRÓ,41.1723684499854,-8.65549663765571,PRT2,http://www.stcp.pt/pt/viajar/paragens/?t=detalhe&paragem=PRO1,OUTBOUND_CITY_CENTER,Ramalde
201,0,Viso,1,,201_0_1_shp,EZC1,21,,EZC1,EZEQUIEL CAMPOS,41.174448685118,-8.65379299192125,PRT2,http://www.stcp.pt/pt/viajar/paragens/?t=detalhe&paragem=EZC1,OUTBOUND_CITY_CENTER,Ramalde
201,0,Viso,1,,201_0_1_shp,MPAZ5,22,,MPAZ5,MAN.P.AZEVEDO 3,41.1769887148863,-8.65183569923958,PRT2,http://www.stcp.pt/pt/viajar/paragens/?t=detalhe&paragem=MPAZ5,OUTBOUND_CITY_CENTER,Ramalde
201,0,Viso,1,,201_0_1_shp,IMTT1,23,,IMTT1,IMTT,41.1784854613403,-8.64880054587232,PRT2,http://www.stcp.pt/pt/viajar/paragens/?t=detalhe&paragem=IMTT1,OUTBOUND_CITY_CENTER,Ramalde
201,0,Viso,1,,201_0_1_shp,VIS5,24,,VIS5,VISO (METRO),41.1773611404872,-8.64649997924974,PRT2,http://www.stcp.pt/pt/viajar/paragens/?t=detalhe&paragem=VIS5,OUTBOUND_CITY_CENTER,Ramalde
