[
    {
        "name": "Externato Ribadouro",
        "address": "R. de Santa Catarina 1346, 4000-447 Porto, Portugal",
        "lat": 41.158141,
        "long": -8.603907,
        "type": "primary school",
        "location": "Paranhos, Porto"
    },
    {
        "name": "School E B 2.3 Ramalho Ortigão",
        "address": "R. Dr. Sousa Ávides 72, 4300-487 Porto, Portugal",
        "lat": 41.1517577,
        "long": -8.589972999999999,
        "type": "primary school",
        "location": "Paranhos, Porto"
    },
    {
        "name": "Escola Básica de 1.º CEB / JI São Tomé",
        "address": "4200-530 Porto, Portugal",
        "lat": 41.1777236,
        "long": -8.6113281,
        "type": "primary school",
        "location": "Paranhos, Porto"
    },
    {
        "name": "Filipa de Vilhena High School",
        "address": "R. do Covelo 205, 4200-239 Porto, Portugal",
        "lat": 41.1661577,
        "long": -8.6081595,
        "type": "primary school",
        "location": "Paranhos, Porto"
    },
    {
        "name": "Salesians of Porto - College",
        "address": "Largo do Padre Baltasar Guedes 248, 4300-059 Porto, Portugal",
        "lat": 41.141233,
        "long": -8.5953921,
        "type": "primary school",
        "location": "Paranhos, Porto"
    },
    {
        "name": "Casa Nossa Senhora da Conceição - ATNP",
        "address": "R. do Conde de Vilas Boas 126, 4250-048 Porto, Portugal",
        "lat": 41.1649189,
        "long": -8.622779,
        "type": "primary school",
        "location": "Paranhos, Porto"
    },
    {
        "name": "EB1/JI do Cerco",
        "address": "R. Vila Nova de Foz Côa 31 4300, Porto, Portugal",
        "lat": 41.1616578,
        "long": -8.5674871,
        "type": "primary school",
        "location": "Paranhos, Porto"
    },
    {
        "name": "Mercearia Guimarães",
        "address": "R. das Flores 20, 4050-416 Porto, Portugal",
        "lat": 41.1434603,
        "long": -8.614359799999999,
        "type": "primary school",
        "location": "Paranhos, Porto"
    },
    {
        "name": "Centro Escolar de Costa Cabral (1.º CEB / JI)",
        "address": "Rua de Costa Cabral 551, 4200-223 Porto, Portugal",
        "lat": 41.1662429,
        "long": -8.5992492,
        "type": "primary school",
        "location": "Paranhos, Porto"
    },
    {
        "name": "Escola Básica de 1.º CEB / JI do Covelo",
        "address": "R. Dr. Adriano de Paiva 265, 4200-076 Porto, Portugal",
        "lat": 41.1656013,
        "long": -8.609294499999999,
        "type": "primary school",
        "location": "Paranhos, Porto"
    },
    {
        "name": "Escola EB Eugénio de Andrade",
        "address": "R. de Augusto Lessa 402, 4200-105 Porto, Portugal",
        "lat": 41.1700267,
        "long": -8.5996764,
        "type": "primary school",
        "location": "Paranhos, Porto"
    },
    {
        "name": "Primary School Montebello (EB1 / JI)",
        "address": "Escola Básica do 1.º Ciclo de Montebello, R. de Alcântara 300 4350, Porto, Portugal",
        "lat": 41.1713396,
        "long": -8.584488799999999,
        "type": "primary school",
        "location": "Paranhos, Porto"
    },
    {
        "name": "Stacey",
        "address": "R. de Pedro Hispano 218, Porto, Portugal",
        "lat": 41.1609873,
        "long": -8.6392388,
        "type": "primary school",
        "location": "Paranhos, Porto"
    },
    {
        "name": "Tangerina, Educação e Ensino",
        "address": "Av. da Boavista 2547, 4100-135 Porto, Portugal",
        "lat": 41.1617358,
        "long": -8.6535809,
        "type": "primary school",
        "location": "Paranhos, Porto"
    },
    {
        "name": "PARANHOS DRIVING SCHOOL",
        "address": "R. de Vale Formoso 280 R/C, 4200-509 Porto, Portugal",
        "lat": 41.1679223,
        "long": -8.6120146,
        "type": "primary school",
        "location": "Paranhos, Porto"
    },
    {
        "name": "Colégio Luso-Francês",
        "address": "Rua do Amial 442, 4200-055 Porto, Portugal",
        "lat": 41.176801,
        "long": -8.6139849,
        "type": "primary school",
        "location": "Paranhos, Porto"
    },
    {
        "name": "School Santa Maria",
        "address": "R. de Guerra Junqueiro 597, Porto, Portugal",
        "lat": 41.1583231,
        "long": -8.6362879,
        "type": "primary school",
        "location": "Paranhos, Porto"
    },
    {
        "name": "Externato Académico",
        "address": "R. de Cedofeita 104, 4050-173 Porto, Portugal",
        "lat": 41.1498036,
        "long": -8.6166515,
        "type": "primary school",
        "location": "Paranhos, Porto"
    },
    {
        "name": "Schools Group Pero Vaz de Caminha",
        "address": "R. da Telheira, 4250-483 Porto, Portugal",
        "lat": 41.1777084,
        "long": -8.6154564,
        "type": "primary school",
        "location": "Paranhos, Porto"
    },
    {
        "name": "The Basic School 1st Cycle Augusto Lessa",
        "address": "R. de Augusto Lessa 402, 4200-105 Porto, Portugal",
        "lat": 41.1700268,
        "long": -8.5996781,
        "type": "primary school",
        "location": "Paranhos, Porto"
    },
    {
        "name": "University of Porto",
        "address": "Praça de Gomes Teixeira, 4099-002 Porto, Portugal",
        "lat": 41.1465479,
        "long": -8.6156998,
        "type": "university",
        "location": "Paranhos, Porto"
    },
    {
        "name": "Universidade Lusófona do Porto",
        "address": "R. de Augusto Rosa 24, 4000-098 Porto, Portugal",
        "lat": 41.1431833,
        "long": -8.6079888,
        "type": "university",
        "location": "Paranhos, Porto"
    },
    {
        "name": "Católica Porto Business School",
        "address": "R. de Diogo Botelho 1327, 4169-005 Porto, Portugal",
        "lat": 41.15412620000001,
        "long": -8.671778,
        "type": "university",
        "location": "Paranhos, Porto"
    },
    {
        "name": "UFP",
        "address": "Praça de 9 de Abril 349, 4249-004 Porto, Portugal",
        "lat": 41.1728847,
        "long": -8.6111563,
        "type": "university",
        "location": "Paranhos, Porto"
    },
    {
        "name": "Faculdade de Ciências da Universidade do Porto",
        "address": "Rua do Campo Alegre s/n, 4169-007 Porto, Portugal",
        "lat": 41.1517879,
        "long": -8.6366093,
        "type": "university",
        "location": "Paranhos, Porto"
    },
    {
        "name": "UPT - Universidade Portucalense",
        "address": "R. Dr. António Bernardino de Almeida 541, 4200-072 Porto, Portugal",
        "lat": 41.18029019999999,
        "long": -8.6069488,
        "type": "university",
        "location": "Paranhos, Porto"
    },
    {
        "name": "Porto School of Education",
        "address": "R. Dr. Roberto Frias 602, 4200-465 Porto, Portugal",
        "lat": 41.1802785,
        "long": -8.596998899999999,
        "type": "university",
        "location": "Paranhos, Porto"
    },
    {
        "name": "Faculty of Engineering - University of Porto",
        "address": "s/n, R. Dr. Roberto Frias, 4200-465 Porto, Portugal",
        "lat": 41.1783583,
        "long": -8.5958454,
        "type": "university",
        "location": "Paranhos, Porto"
    },
    {
        "name": "Lusíada University of Porto",
        "address": "R. de Moçambique 21 e 71, 4100-348 Porto, Portugal",
        "lat": 41.1685744,
        "long": -8.661788399999999,
        "type": "university",
        "location": "Paranhos, Porto"
    },
    {
        "name": "Porto School of Architecture",
        "address": "Via Panorâmica Edgar Cardoso 215, 4150-564 Porto, Portugal",
        "lat": 41.1504489,
        "long": -8.6361715,
        "type": "university",
        "location": "Paranhos, Porto"
    },
    {
        "name": "Faculdade de Ciências da Nutrição e Alimentação da Universidade do Porto",
        "address": "Rua do Campo Alegre 823, 4150-180 Porto, Portugal",
        "lat": 41.15234960000001,
        "long": -8.6386734,
        "type": "university",
        "location": "Paranhos, Porto"
    },
    {
        "name": "FEP - Faculdade de Economia da Universidade do Porto",
        "address": "R. Dr. Roberto Frias, 4200-464 Porto, Portugal",
        "lat": 41.1752444,
        "long": -8.5987375,
        "type": "university",
        "location": "Paranhos, Porto"
    },
    {
        "name": "Faculdade de Belas Artes da Universidade do Porto",
        "address": "Av. de Rodrigues de Freitas 265, 4049–021 Porto, Portugal",
        "lat": 41.14565590000001,
        "long": -8.600819999999999,
        "type": "university",
        "location": "Paranhos, Porto"
    },
    {
        "name": "School of Health Sciences - Polytechnic of Porto",
        "address": "R. Dr. António Bernardino de Almeida 400, 4200-072 Porto, Portugal",
        "lat": 41.1777092,
        "long": -8.606944,
        "type": "university",
        "location": "Paranhos, Porto"
    },
    {
        "name": "UCP-School of Biotechnology",
        "address": "R. de Diogo Botelho 1327, 4169-005 Porto, Portugal",
        "lat": 41.1538797,
        "long": -8.672989399999999,
        "type": "university",
        "location": "Paranhos, Porto"
    },
    {
        "name": "Faculty of Psychology and Education Sciences of the University of Porto",
        "address": "Faculdade de Psicologia e de Ciências da Educação de Universidade do Porto, R. Alfredo Allen, 4200-135 Porto, Portugal",
        "lat": 41.1754127,
        "long": -8.6045307,
        "type": "university",
        "location": "Paranhos, Porto"
    },
    {
        "name": "Higher Institute of Business and Tourism",
        "address": "R. de Cedofeita 285, 4050-180 Porto, Portugal",
        "lat": 41.15200069999999,
        "long": -8.6180522,
        "type": "university",
        "location": "Paranhos, Porto"
    },
    {
        "name": "Faculdade De Medicina Dentária Da Universidade Do Porto",
        "address": "Faculdade de Medicina Dentária de Universidade do Porto, R. Dr. Manuel Pereira da Silva, 4200-393 Porto, Portugal",
        "lat": 41.1742687,
        "long": -8.603154600000002,
        "type": "university",
        "location": "Paranhos, Porto"
    },
    {
        "name": "Faculdade de Letras da Universidade do Porto",
        "address": "Via Panorâmica Edgar Cardoso s / n, 4150-564 Porto, Portugal",
        "lat": 41.1510585,
        "long": -8.6325751,
        "type": "university",
        "location": "Paranhos, Porto"
    },
    {
        "name": "Polytechnic Institute of Porto",
        "address": "R. Dr. Roberto Frias 712, 4200-465 Porto, Portugal",
        "lat": 41.1791919,
        "long": -8.5977521,
        "type": "university",
        "location": "Paranhos, Porto"
    },
    {
        "name": "São João University Hospital",
        "address": "Alameda Prof. Hernâni Monteiro, 4200-319 Porto, Portugal",
        "lat": 41.1827919,
        "long": -8.6002563,
        "type": "hospital",
        "location": "Paranhos, Porto"
    },
    {
        "name": "Hospital Geral de Santo António",
        "address": "R. Dr. Tiago de Almeida, 4050-342 Porto, Portugal",
        "lat": 41.1464218,
        "long": -8.619593199999999,
        "type": "hospital",
        "location": "Paranhos, Porto"
    },
    {
        "name": "Paranhos Health Center",
        "address": "510, R. de Vale Formoso 466, Porto, Portugal",
        "lat": 41.1695383,
        "long": -8.6123256,
        "type": "hospital",
        "location": "Paranhos, Porto"
    },
    {
        "name": "Hospital de Santa Maria - Porto",
        "address": "Rua de Camões 906, 4049-025 Porto, Portugal",
        "lat": 41.1600076,
        "long": -8.6095796,
        "type": "hospital",
        "location": "Paranhos, Porto"
    },
    {
        "name": "Hospital Lusíadas Porto",
        "address": "Av. da Boavista 171, 4050-115 Porto, Portugal",
        "lat": 41.157245,
        "long": -8.625944,
        "type": "hospital",
        "location": "Paranhos, Porto"
    },
    {
        "name": "Hospital CUF Trindade",
        "address": "Rua da Trindade 115, 4000-541 Porto, Portugal",
        "lat": 41.1516143,
        "long": -8.6097719,
        "type": "hospital",
        "location": "Paranhos, Porto"
    },
    {
        "name": "Hospital da Lapa",
        "address": "Largo da Lapa 1, 4050-069 Porto, Portugal",
        "lat": 41.1570511,
        "long": -8.6128717,
        "type": "hospital",
        "location": "Paranhos, Porto"
    },
    {
        "name": "Atlantic Health Clinic",
        "address": "Estádio Dragão Entrada Nascente, 4350-415 Porto, Portugal",
        "lat": 41.1606835,
        "long": -8.5850961,
        "type": "hospital",
        "location": "Paranhos, Porto"
    },
    {
        "name": "Centro Hospitalar Universitário de Santo António - Edifício Neoclássico",
        "address": "R. Prof. Vicente José de Carvalho 37, 4050-011 Porto, Portugal",
        "lat": 41.14711459999999,
        "long": -8.618262099999999,
        "type": "hospital",
        "location": "Paranhos, Porto"
    },
    {
        "name": "Hospital da Prelada",
        "address": "Rua de Sarmento de Beires, 4250-449 153, Portugal",
        "lat": 41.1706472,
        "long": -8.6289389,
        "type": "hospital",
        "location": "Paranhos, Porto"
    },
    {
        "name": "Hospital de São Francisco do Porto",
        "address": "R. da Bolsa 80, 4050-116 Porto, Portugal",
        "lat": 41.1417406,
        "long": -8.6164089,
        "type": "hospital",
        "location": "Paranhos, Porto"
    },
    {
        "name": "Hospital Santo António: Clinic",
        "address": "R. de Dom Manuel II 4050, 4050-342 Porto, Portugal",
        "lat": 41.1474641,
        "long": -8.622460199999999,
        "type": "hospital",
        "location": "Paranhos, Porto"
    },
    {
        "name": "Casa de Saúde da Boavista",
        "address": "R. de Domingos Machado 186, 4250-201 Porto, Portugal",
        "lat": 41.1653379,
        "long": -8.6331528,
        "type": "hospital",
        "location": "Paranhos, Porto"
    },
    {
        "name": "Centro hospitalar",
        "address": "Largo da Maternidade de Júlio Dinis 21, 4050-101 Porto, Portugal",
        "lat": 41.15067699999999,
        "long": -8.6233946,
        "type": "hospital",
        "location": "Paranhos, Porto"
    },
    {
        "name": "Urgência de Obstetrícia do São João",
        "address": "Alameda Prof. Hernâni Monteiro, 4200-319 Porto, Portugal",
        "lat": 41.1812445,
        "long": -8.6027012,
        "type": "hospital",
        "location": "Paranhos, Porto"
    },
    {
        "name": "Urgência Pediatrica do Porto",
        "address": "Alameda Prof. Hernâni Monteiro, 4200-319 Porto, Portugal",
        "lat": 41.1810118,
        "long": -8.6010675,
        "type": "hospital",
        "location": "Paranhos, Porto"
    },
    {
        "name": "USF Lindo Vale",
        "address": "R. de Vale Formoso 466, 4200-514 Porto, Portugal",
        "lat": 41.1695955,
        "long": -8.6122643,
        "type": "hospital",
        "location": "Paranhos, Porto"
    },
    {
        "name": "urgência Centro Materno Infantil do Norte",
        "address": "Largo da Maternidade de Júlio Dinis 45, 4050-651 Porto, Portugal",
        "lat": 41.15189,
        "long": -8.6240308,
        "type": "hospital",
        "location": "Paranhos, Porto"
    },
    {
        "name": "Urgência Polivalente do São João",
        "address": "Alameda Prof. Hernâni Monteiro, 4200-319 Porto, Portugal",
        "lat": 41.1819026,
        "long": -8.601239399999999,
        "type": "hospital",
        "location": "Paranhos, Porto"
    },
    {
        "name": "Hospital das Forças Armadas: Pólo Rei Dom Pedro V",
        "address": "Av. da Boavista S/N, 4050-113 Porto, Portugal",
        "lat": 41.157746,
        "long": -8.6258699,
        "type": "hospital",
        "location": "Paranhos, Porto"
    },
    {
        "name": "Escola Básica de 1.º CEB / JI São Tomé",
        "address": "4200-530 Porto, Portugal",
        "lat": 41.1777236,
        "long": -8.6113281,
        "type": "school",
        "location": "Paranhos, Porto"
    },
    {
        "name": "Escola Preparatoria Audusto Gil",
        "address": "R. de Santa Catarina 782, 4000-466 Porto, Portugal",
        "lat": 41.1531063,
        "long": -8.6046633,
        "type": "school",
        "location": "Paranhos, Porto"
    },
    {
        "name": "O mais perto de Paços de Ferreira Porto",
        "address": "R. de Sá da Bandeira 481, 4000-218 Porto, Portugal",
        "lat": 41.15046,
        "long": -8.6071107,
        "type": "school",
        "location": "Paranhos, Porto"
    },
    {
        "name": "Escola EB 2/3 de Augusto Gil",
        "address": "Rua da Alegria 351, 4000-425 Porto, Portugal",
        "lat": 41.1529966,
        "long": -8.604098,
        "type": "school",
        "location": "Paranhos, Porto"
    },
    {
        "name": "Filipa de Vilhena High School",
        "address": "R. do Covelo 205, 4200-239 Porto, Portugal",
        "lat": 41.1661577,
        "long": -8.6081595,
        "type": "school",
        "location": "Paranhos, Porto"
    },
    {
        "name": "Escola Básica de 1.º CEB do Sol, Porto",
        "address": "R. do Sol 14 4000, 4000-527 Porto, Portugal",
        "lat": 41.1429942,
        "long": -8.6044532,
        "type": "school",
        "location": "Paranhos, Porto"
    },
    {
        "name": "Externato Santa Clara",
        "address": "R. de Dom João IV 99, 4000-301 Porto, Portugal",
        "lat": 41.1473542,
        "long": -8.6020556,
        "type": "school",
        "location": "Paranhos, Porto"
    },
    {
        "name": "Escola di sófíà",
        "address": "R. do Maj. David Magno, Porto, Portugal",
        "lat": 41.1583345,
        "long": -8.5950197,
        "type": "school",
        "location": "Paranhos, Porto"
    },
    {
        "name": "Escola Básica de 1.º CEB / JI da Fontinha",
        "address": "R. de Raúl Dória 89, 4000-241 Porto, Portugal",
        "lat": 41.1550462,
        "long": -8.6062707,
        "type": "school",
        "location": "Paranhos, Porto"
    },
    {
        "name": "Professional School Social Economy",
        "address": "Rua da Alegria 598, 4000-037 Porto, Portugal",
        "lat": 41.1557332,
        "long": -8.6017028,
        "type": "school",
        "location": "Paranhos, Porto"
    },
    {
        "name": "Trabalho",
        "address": "R. de Sá da Bandeira 819, 4000-267 Porto, Portugal",
        "lat": 41.1532847,
        "long": -8.6055695,
        "type": "school",
        "location": "Paranhos, Porto"
    },
    {
        "name": "School E B 2.3 Ramalho Ortigão",
        "address": "R. Dr. Sousa Ávides 72, 4300-487 Porto, Portugal",
        "lat": 41.1517577,
        "long": -8.589972999999999,
        "type": "school",
        "location": "Paranhos, Porto"
    },
    {
        "name": "学校Great Universal College",
        "address": "R. da Boavista 158 168, 4050-102 Porto, Portugal",
        "lat": 41.1560996,
        "long": -8.615183199999999,
        "type": "school",
        "location": "Paranhos, Porto"
    },
    {
        "name": "Externato das Escravas do Sagrado Coração de Jesus do Porto",
        "address": "R. Carlos Malheiro Dias 197, 4200-154 Porto, Portugal",
        "lat": 41.1603503,
        "long": -8.5964013,
        "type": "school",
        "location": "Paranhos, Porto"
    },
    {
        "name": "College D.Dinis",
        "address": "R. de Santa Catarina 220, 4000-247 Porto, Portugal",
        "lat": 41.14794759999999,
        "long": -8.6062652,
        "type": "school",
        "location": "Paranhos, Porto"
    },
    {
        "name": "Escola Básica de 1.º CEB das Florinhas",
        "address": "R. da Escola Normal 28, 4000-099 Porto, Portugal",
        "lat": 41.1547237,
        "long": -8.6033511,
        "type": "school",
        "location": "Paranhos, Porto"
    },
    {
        "name": "High School Alexandre Herculano",
        "address": "Av. de Camilo s/n, 4300-096 Porto, Portugal",
        "lat": 41.1487425,
        "long": -8.5946006,
        "type": "school",
        "location": "Paranhos, Porto"
    },
    {
        "name": "escola 3 ciclo",
        "address": "Rua da Alegria, 4000-300 Porto, Portugal",
        "lat": 41.1559155,
        "long": -8.6023953,
        "type": "school",
        "location": "Paranhos, Porto"
    },
    {
        "name": "Externato Ribadouro",
        "address": "R. de Santa Catarina 1346, 4000-447 Porto, Portugal",
        "lat": 41.158141,
        "long": -8.603907,
        "type": "school",
        "location": "Paranhos, Porto"
    },
    {
        "name": "Externato Ribadouro Polo De Bonjardim",
        "address": "R. do Bonjardim 1226, 4000-123 Porto, Portugal",
        "lat": 41.1589168,
        "long": -8.606239799999999,
        "type": "school",
        "location": "Paranhos, Porto"
    },
    {
        "name": "Espaço Cidadão de Paranhos",
        "address": "R. Álvaro de Castelões 811, 4200-047 Porto, Portugal",
        "lat": 41.1708437,
        "long": -8.603945200000002,
        "type": "public office",
        "location": "Paranhos, Porto"
    },
    {
        "name": "Junta de Freguesia de Paranhos",
        "address": "R. Álvaro de Castelões 811, 4200-047 Porto, Portugal",
        "lat": 41.17085489999999,
        "long": -8.6041273,
        "type": "public office",
        "location": "Paranhos, Porto"
    },
    {
        "name": "Direção Geral dos Registos e do Notariado - Conservatória de Registo Predial do Porto",
        "address": "R. de Gonçalo Cristóvão 347, 4000-269 Porto, Portugal",
        "lat": 41.1535117,
        "long": -8.6112612,
        "type": "public office",
        "location": "Paranhos, Porto"
    },
    {
        "name": "Departamento de Identificação Civil do Porto",
        "address": "R. de Gonçalo Cristóvão 371, 4000-270 Porto, Portugal",
        "lat": 41.1534789,
        "long": -8.611729799999999,
        "type": "public office",
        "location": "Paranhos, Porto"
    },
    {
        "name": "Gabinete do Munícipe",
        "address": "Praça Gen. Humberto Delgado 266, 4000-286 Porto, Portugal",
        "lat": 41.1493243,
        "long": -8.6102095,
        "type": "public office",
        "location": "Paranhos, Porto"
    },
    {
        "name": "Paranhos",
        "address": "Tv. do Covelo 203 sala16, 4200-441 Porto, Portugal",
        "lat": 41.1683034,
        "long": -8.6074039,
        "type": "public office",
        "location": "Paranhos, Porto"
    },
    {
        "name": "SNS24 - Centro de Contacto do Serviço Nacional de Saúde",
        "address": "R. do Dr. Alfredo Magalhães 24, 4000-265 Porto, Portugal",
        "lat": 41.1542806,
        "long": -8.6094323,
        "type": "public office",
        "location": "Paranhos, Porto"
    },
    {
        "name": "Direção Municipal de Recursos Humanos (DMGPOP)",
        "address": "R. do Bolhão 192, 4000-437 Porto, Portugal",
        "lat": 41.1519334,
        "long": -8.6069119,
        "type": "public office",
        "location": "Paranhos, Porto"
    },
    {
        "name": "Espaço Cidadão",
        "address": "Campo 24 de Agosto 294, 4300-506 Porto, Portugal",
        "lat": 41.1482083,
        "long": -8.5984286,
        "type": "public office",
        "location": "Paranhos, Porto"
    },
    {
        "name": "Paranhos Health Center",
        "address": "510, R. de Vale Formoso 466, Porto, Portugal",
        "lat": 41.1695383,
        "long": -8.6123256,
        "type": "public office",
        "location": "Paranhos, Porto"
    },
    {
        "name": "UP! Business Unit Paranhos",
        "address": "R. Tâmega, 4200-502 Porto, Portugal",
        "lat": 41.173227,
        "long": -8.599902499999999,
        "type": "public office",
        "location": "Paranhos, Porto"
    },
    {
        "name": "Tribunal Administrativo e Fiscal do Porto",
        "address": "R. do Duque da Terceira 337, 4300-096 Porto, Portugal",
        "lat": 41.1469811,
        "long": -8.5987717,
        "type": "public office",
        "location": "Paranhos, Porto"
    },
    {
        "name": "Gabinete de Paulo Coelho",
        "address": "4200-465 Paranhos, Portugal",
        "lat": 41.1781045,
        "long": -8.594455199999999,
        "type": "public office",
        "location": "Paranhos, Porto"
    },
    {
        "name": "Porto City Hall",
        "address": "Praça Gen. Humberto Delgado, 4049-001 Porto, Portugal",
        "lat": 41.1499084,
        "long": -8.6107023,
        "type": "public office",
        "location": "Paranhos, Porto"
    },
    {
        "name": "SEGURANÇA SOCIAL EQUIPA LOCAL DE ACÇÃO SOCIAL PORTO ORIENTAL",
        "address": "Rua da Alegria 200, 4000-034 Porto, Portugal",
        "lat": 41.1499382,
        "long": -8.604105299999999,
        "type": "public office",
        "location": "Paranhos, Porto"
    },
    {
        "name": "משרד הפנים",
        "address": "Av. da França n.º 358 loja 64, 4050-276 Porto, Portugal",
        "lat": 41.1607633,
        "long": -8.628367599999999,
        "type": "public office",
        "location": "Paranhos, Porto"
    },
    {
        "name": "Departamento de Saúde Saúde Pública da ARS Norte",
        "address": "R. de Anselmo Braancamp 144, 4000-078 Porto, Portugal",
        "lat": 41.1523686,
        "long": -8.6008634,
        "type": "public office",
        "location": "Paranhos, Porto"
    },
    {
        "name": "משרד הפנים פורטו",
        "address": "Rua de Camões, 4000-124 Porto, Portugal",
        "lat": 41.1520287,
        "long": -8.6100356,
        "type": "public office",
        "location": "Paranhos, Porto"
    },
    {
        "name": "BALCÃO DE PARANHOS",
        "address": "Largo Campo Lindo 13, 4200-142 Porto, Portugal",
        "lat": 41.1698058,
        "long": -8.608430499999999,
        "type": "public office",
        "location": "Paranhos, Porto"
    },
    {
        "name": "Águas do Porto, E.M",
        "address": "R. do Barão de Nova Sintra 285, 4300-367 Porto, Portugal",
        "lat": 41.1454835,
        "long": -8.5912878,
        "type": "public office",
        "location": "Paranhos, Porto"
    },
    {
        "name": "ViaCatarina Shopping",
        "address": "R. de Santa Catarina 312 a 350, 4000-443 Porto, Portugal",
        "lat": 41.1490625,
        "long": -8.6051555,
        "type": "shopping mall",
        "location": "Paranhos, Porto"
    },
    {
        "name": "Alameda Shop & Spot",
        "address": "R. dos Campeões Europeus 28, 4350-414 Porto, Portugal",
        "lat": 41.1637391,
        "long": -8.5841842,
        "type": "shopping mall",
        "location": "Paranhos, Porto"
    },
    {
        "name": "Shopping Cidade do Porto",
        "address": "R. de Gonçalo Sampaio 350, 4150-365 Porto, Portugal",
        "lat": 41.1549001,
        "long": -8.6297172,
        "type": "shopping mall",
        "location": "Paranhos, Porto"
    },
    {
        "name": "Galeria Comercial do Campus São João",
        "address": "R. Dr. Plácido da Costa, 4200-450 Porto, Portugal",
        "lat": 41.1804102,
        "long": -8.604160199999999,
        "type": "shopping mall",
        "location": "Paranhos, Porto"
    },
    {
        "name": "Centro Comercial STOP",
        "address": "Rua do Heroísmo 329, 4300-096 Porto, Portugal",
        "lat": 41.1460067,
        "long": -8.5949293,
        "type": "shopping mall",
        "location": "Paranhos, Porto"
    },
    {
        "name": "NorteShopping",
        "address": "R. Sara Afonso, 4460-841 Sra. da Hora, Portugal",
        "lat": 41.1808164,
        "long": -8.6545763,
        "type": "shopping mall",
        "location": "Paranhos, Porto"
    },
    {
        "name": "Fontenário Shopping Center",
        "address": "R. do Bonfim 3-37, 4300-401 Porto, Portugal",
        "lat": 41.1547813,
        "long": -8.5912948,
        "type": "shopping mall",
        "location": "Paranhos, Porto"
    },
    {
        "name": "CC Bombarda",
        "address": "Rua de Miguel Bombarda 285, 4050-381 Porto, Portugal",
        "lat": 41.1496048,
        "long": -8.620330599999999,
        "type": "shopping mall",
        "location": "Paranhos, Porto"
    },
    {
        "name": "ArrábidaShopping",
        "address": "PCT de Henrique Moreira 244, 4400-346 Vila Nova de Gaia, Portugal",
        "lat": 41.1414625,
        "long": -8.6364535,
        "type": "shopping mall",
        "location": "Paranhos, Porto"
    },
    {
        "name": "Trinity Porto",
        "address": "R. dos Heróis e dos Mártires de Angola 49, 4000-285 Porto, Portugal",
        "lat": 41.1513236,
        "long": -8.610782799999999,
        "type": "shopping mall",
        "location": "Paranhos, Porto"
    },
    {
        "name": "Centro Comercial de Cedofeita",
        "address": "R. de Cedofeita 451, 4050-181 Porto, Portugal",
        "lat": 41.15455,
        "long": -8.6191472,
        "type": "shopping mall",
        "location": "Paranhos, Porto"
    },
    {
        "name": "Praça Central",
        "address": "R. Régulo Magauanha 34 127, 4000-290 Porto, Portugal",
        "lat": 41.1543019,
        "long": -8.6088808,
        "type": "shopping mall",
        "location": "Paranhos, Porto"
    },
    {
        "name": "Shopping Brasília",
        "address": "Praça de Mouzinho de Albuquerque 113, 4100-359 Porto, Portugal",
        "lat": 41.1575628,
        "long": -8.627837,
        "type": "shopping mall",
        "location": "Paranhos, Porto"
    },
    {
        "name": "Shopping Center Itália",
        "address": "Shopping Center Itália, Rua de Júlio Dinis 700 - 850, 4050-012 Porto, Portugal",
        "lat": 41.1556714,
        "long": -8.6264939,
        "type": "shopping mall",
        "location": "Paranhos, Porto"
    },
    {
        "name": "Parque Nascente Shopping",
        "address": "Praceta Parque Nascente 35, 4435-182 Rio Tinto, Portugal",
        "lat": 41.1735671,
        "long": -8.5672835,
        "type": "shopping mall",
        "location": "Paranhos, Porto"
    },
    {
        "name": "Praça de Lisboa",
        "address": "4050-162 Porto, Portugal",
        "lat": 41.146253,
        "long": -8.614920999999999,
        "type": "shopping mall",
        "location": "Paranhos, Porto"
    },
    {
        "name": "Palace of Commerce",
        "address": "R. de Sá da Bandeira 491, 4000-111 Porto, Portugal",
        "lat": 41.1506536,
        "long": -8.607168,
        "type": "shopping mall",
        "location": "Paranhos, Porto"
    },
    {
        "name": "World Trade Center Porto",
        "address": "Av. da Boavista 1277, 4100-130 Porto, Portugal",
        "lat": 41.1592613,
        "long": -8.6387431,
        "type": "shopping mall",
        "location": "Paranhos, Porto"
    },
    {
        "name": "Cais Via Catarina",
        "address": "Rua da Alegria 165A, 4000-043 Porto, Portugal",
        "lat": 41.14899459999999,
        "long": -8.6041388,
        "type": "shopping mall",
        "location": "Paranhos, Porto"
    },
    {
        "name": "MAR Shopping Matosinhos",
        "address": "Av. Dr. Óscar Lopes, 4450-337 Matosinhos, Portugal",
        "lat": 41.2089995,
        "long": -8.6879554,
        "type": "shopping mall",
        "location": "Paranhos, Porto"
    },
    {
        "name": "Torre dos Clérigos",
        "address": "R. de São Filipe de Nery, 4050-546 Porto, Portugal",
        "lat": 41.1456705,
        "long": -8.6145977,
        "type": "tourist attraction",
        "location": "Paranhos, Porto"
    },
    {
        "name": "Palácio da Bolsa",
        "address": "R. de Ferreira Borges, 4050-253 Porto, Portugal",
        "lat": 41.1413772,
        "long": -8.615672499999999,
        "type": "tourist attraction",
        "location": "Paranhos, Porto"
    },
    {
        "name": "Clérigos Church",
        "address": "R. de São Filipe de Nery, 4050-546 Porto, Portugal",
        "lat": 41.1458838,
        "long": -8.6139451,
        "type": "tourist attraction",
        "location": "Paranhos, Porto"
    },
    {
        "name": "vuelo 5D dragon",
        "address": "R. de Sá da Bandeira 198, 4000-381 Porto, Portugal",
        "lat": 41.147893,
        "long": -8.6082438,
        "type": "tourist attraction",
        "location": "Paranhos, Porto"
    },
    {
        "name": "Porto Cathedral",
        "address": "Terreiro da Sé, 4050-573 Porto, Portugal",
        "lat": 41.1428531,
        "long": -8.6111165,
        "type": "tourist attraction",
        "location": "Paranhos, Porto"
    },
    {
        "name": "Jardim do Morro",
        "address": "Jardim do Morro, 4430-210 Vila Nova de Gaia, Portugal",
        "lat": 41.1371459,
        "long": -8.6092935,
        "type": "tourist attraction",
        "location": "Paranhos, Porto"
    },
    {
        "name": "Church of Saint Ildefonso",
        "address": "Praça da Batalha s/n, 4000-101 Porto, Portugal",
        "lat": 41.1460999,
        "long": -8.6066989,
        "type": "tourist attraction",
        "location": "Paranhos, Porto"
    },
    {
        "name": "Letras do Porto",
        "address": "R. Clube dos Fenianos 5, 4000-407 Porto, Portugal",
        "lat": 41.1495691,
        "long": -8.6107619,
        "type": "tourist attraction",
        "location": "Paranhos, Porto"
    },
    {
        "name": "Avenida dos Aliados",
        "address": "Av. dos Aliados 150, 4000-067 Porto, Portugal",
        "lat": 41.1483096,
        "long": -8.6108148,
        "type": "tourist attraction",
        "location": "Paranhos, Porto"
    },
    {
        "name": "Mural “Porto Colors” by Francisco Fonseca",
        "address": "Rua da Alegria 417, 4000-300 Porto, Portugal",
        "lat": 41.1537017,
        "long": -8.603460199999999,
        "type": "tourist attraction",
        "location": "Paranhos, Porto"
    },
    {
        "name": "Chapel of Souls",
        "address": "R. de Santa Catarina 428, 4000-124 Porto, Portugal",
        "lat": 41.1498821,
        "long": -8.6056554,
        "type": "tourist attraction",
        "location": "Paranhos, Porto"
    },
    {
        "name": "Muralha Primitiva do Porto",
        "address": "Calçada de Vandoma, 4000-052 Porto, Portugal",
        "lat": 41.1430995,
        "long": -8.6104653,
        "type": "tourist attraction",
        "location": "Paranhos, Porto"
    },
    {
        "name": "Jardim de Arca d'Água",
        "address": "Praça de 9 de Abril 121, 4200-422 Porto, Portugal",
        "lat": 41.1719415,
        "long": -8.6119626,
        "type": "tourist attraction",
        "location": "Paranhos, Porto"
    },
    {
        "name": "Episcopal Palace of Porto",
        "address": "Terreiro da Sé, Porto, Portugal",
        "lat": 41.141979,
        "long": -8.6117156,
        "type": "tourist attraction",
        "location": "Paranhos, Porto"
    },
    {
        "name": "Praça da Liberdade",
        "address": "4000-069 Porto, Portugal",
        "lat": 41.1464001,
        "long": -8.6113498,
        "type": "tourist attraction",
        "location": "Paranhos, Porto"
    },
    {
        "name": "Largo da Pena Ventosa",
        "address": "Largo da Pena Ventosa 22, Porto, Portugal",
        "lat": 41.1427589,
        "long": -8.613057,
        "type": "tourist attraction",
        "location": "Paranhos, Porto"
    },
    {
        "name": "Chafariz do Anjo",
        "address": "R. de Dom Hugo 3, 4000-013 Porto, Portugal",
        "lat": 41.1429683,
        "long": -8.6109882,
        "type": "tourist attraction",
        "location": "Paranhos, Porto"
    },
    {
        "name": "Street art - Portus Cale",
        "address": "R. de Gonçalo Cristóvão 146, 4000-408 Porto, Portugal",
        "lat": 41.1536935,
        "long": -8.6077595,
        "type": "tourist attraction",
        "location": "Paranhos, Porto"
    },
    {
        "name": "Árvore do Natal",
        "address": "Praça Gen. Humberto Delgado 269, 4000-286 Porto, Portugal",
        "lat": 41.1493482,
        "long": -8.6108009,
        "type": "tourist attraction",
        "location": "Paranhos, Porto"
    },
    {
        "name": "Jardim da Cordoaria",
        "address": "Campo dos Mártires da Pátria, 4050-366 Porto, Portugal",
        "lat": 41.1458015,
        "long": -8.6167116,
        "type": "tourist attraction",
        "location": "Paranhos, Porto"
    },
    {
        "name": "Quinta do Covelo",
        "address": "Parque Covelo, R. de Bolama, 4200-042 Porto, Portugal",
        "lat": 41.1674237,
        "long": -8.6056232,
        "type": "park",
        "location": "Paranhos, Porto"
    },
    {
        "name": "Jardim de Arca d'Água",
        "address": "Praça de 9 de Abril 121, 4200-422 Porto, Portugal",
        "lat": 41.1719415,
        "long": -8.6119626,
        "type": "park",
        "location": "Paranhos, Porto"
    },
    {
        "name": "Alameda das Fontaínhas",
        "address": "Alameda das Fontainhas 210, 4000-235 Porto, Portugal",
        "lat": 41.1425286,
        "long": -8.6002183,
        "type": "park",
        "location": "Paranhos, Porto"
    },
    {
        "name": "Praça dos Poveiros",
        "address": "Praça dos Poveiros 84, 4000-033 Porto, Portugal",
        "lat": 41.1462724,
        "long": -8.6040011,
        "type": "park",
        "location": "Paranhos, Porto"
    },
    {
        "name": "Jardim Marques de Oliveira",
        "address": "Passeio de São Lázaro 33, 4000-507 Porto, Portugal",
        "lat": 41.1459635,
        "long": -8.602522,
        "type": "park",
        "location": "Paranhos, Porto"
    },
    {
        "name": "Jardim Paulo Vallada",
        "address": "R. Dom Agostinho de Jesus e Sousa 49 4000, Porto, Portugal",
        "lat": 41.1531991,
        "long": -8.5980302,
        "type": "park",
        "location": "Paranhos, Porto"
    },
    {
        "name": "Jardim de Fradelos",
        "address": "R. de Sá da Bandeira 772, 4000-462 Porto, Portugal",
        "lat": 41.1527079,
        "long": -8.6059742,
        "type": "park",
        "location": "Paranhos, Porto"
    },
    {
        "name": "Jardim de Teófilo Braga",
        "address": "Praça da República, Porto, Portugal",
        "lat": 41.1544302,
        "long": -8.612663099999999,
        "type": "park",
        "location": "Paranhos, Porto"
    },
    {
        "name": "Jardim da Cordoaria",
        "address": "Campo dos Mártires da Pátria, 4050-366 Porto, Portugal",
        "lat": 41.1458015,
        "long": -8.6167116,
        "type": "park",
        "location": "Paranhos, Porto"
    },
    {
        "name": "Jardim do Carregal (Carrilho Videira)",
        "address": "R. de Clemente Meneres 72, 4050-010 Porto, Portugal",
        "lat": 41.148362,
        "long": -8.619073799999999,
        "type": "park",
        "location": "Paranhos, Porto"
    },
    {
        "name": "Jardim do Passeio Alegre",
        "address": "R. do Passeio Alegre 828, 4150-570 Porto, Portugal",
        "lat": 41.1482061,
        "long": -8.6708015,
        "type": "park",
        "location": "Paranhos, Porto"
    },
    {
        "name": "Parque Central",
        "address": "Rua da Alegria 35, 4000-254 Porto, Portugal",
        "lat": 41.1472723,
        "long": -8.6039719,
        "type": "park",
        "location": "Paranhos, Porto"
    },
    {
        "name": "Bob and Peg",
        "address": "Praça D. Filipa de Lencastre 86, 4000-407 Porto, Portugal",
        "lat": 41.1480876,
        "long": -8.612830599999999,
        "type": "park",
        "location": "Paranhos, Porto"
    },
    {
        "name": "Parque De Estacionamento - Publico - Paranhos",
        "address": "4200-009 Porto, Portugal",
        "lat": 41.1746569,
        "long": -8.6098085,
        "type": "park",
        "location": "Paranhos, Porto"
    },
    {
        "name": "Praça da Trindade",
        "address": "Praça Trindade 22, 4000-035 Porto, Portugal",
        "lat": 41.1505135,
        "long": -8.6106232,
        "type": "park",
        "location": "Paranhos, Porto"
    },
    {
        "name": "Parque do Covelo",
        "address": "R. de Bolama 4200, 4200-137 Porto, Portugal",
        "lat": 41.1653667,
        "long": -8.6046553,
        "type": "park",
        "location": "Paranhos, Porto"
    },
    {
        "name": "Parque da Quinta de Lamas",
        "address": "R. Dr. Manuel Pereira da Silva 696, 4200-465 Porto, Portugal",
        "lat": 41.1771985,
        "long": -8.598186799999999,
        "type": "park",
        "location": "Paranhos, Porto"
    },
    {
        "name": "Praça das Cardosas",
        "address": "Praça das Cardosas, 4000-069 Porto, Portugal",
        "lat": 41.1454967,
        "long": -8.6115009,
        "type": "park",
        "location": "Paranhos, Porto"
    },
    {
        "name": "Largo do Moinho de Vento",
        "address": "R. de Sá de Noronha 97, 4050-526 Porto, Portugal",
        "lat": 41.1480864,
        "long": -8.6150938,
        "type": "park",
        "location": "Paranhos, Porto"
    },
    {
        "name": "Parque Oriental da Cidade do Porto",
        "address": "Parque Oriental da Cidade do Porto, Porto, Portugal",
        "lat": 41.1550291,
        "long": -8.5662159,
        "type": "park",
        "location": "Paranhos, Porto"
    },
    {
        "name": "Jardim do Passeio Alegre",
        "address": "R. do Passeio Alegre 828, 4150-570 Porto, Portugal",
        "lat": 41.1482061,
        "long": -8.6708015,
        "type": "community garden",
        "location": "Paranhos, Porto"
    },
    {
        "name": "Jardim de Arca d'Água",
        "address": "Praça de 9 de Abril 121, 4200-422 Porto, Portugal",
        "lat": 41.1719415,
        "long": -8.6119626,
        "type": "community garden",
        "location": "Paranhos, Porto"
    },
    {
        "name": "Compostagem comunitária",
        "address": "Porto, Portugal",
        "lat": 41.1764869,
        "long": -8.619852999999999,
        "type": "community garden",
        "location": "Paranhos, Porto"
    },
    {
        "name": "Horta Municipal",
        "address": "Tv. do Ribeiro 38, 4200-374 Porto, Portugal",
        "lat": 41.17480279999999,
        "long": -8.6048849,
        "type": "community garden",
        "location": "Paranhos, Porto"
    },
    {
        "name": "Jardim Marques de Oliveira",
        "address": "Passeio de São Lázaro 33, 4000-507 Porto, Portugal",
        "lat": 41.1459635,
        "long": -8.602522,
        "type": "community garden",
        "location": "Paranhos, Porto"
    },
    {
        "name": "Jardim do Cálem",
        "address": "R. de Sobreiras, 4150-078 Porto, Portugal",
        "lat": 41.1479336,
        "long": -8.6544223,
        "type": "community garden",
        "location": "Paranhos, Porto"
    },
    {
        "name": "Jardim da Cordoaria",
        "address": "Campo dos Mártires da Pátria, 4050-366 Porto, Portugal",
        "lat": 41.1458015,
        "long": -8.6167116,
        "type": "community garden",
        "location": "Paranhos, Porto"
    },
    {
        "name": "Jardim dos Sentimentos",
        "address": "Rua da Restauração 116, 4050-394 Porto, Portugal",
        "lat": 41.1456417,
        "long": -8.6259034,
        "type": "community garden",
        "location": "Paranhos, Porto"
    },
    {
        "name": "Jardim do Morro",
        "address": "Jardim do Morro, 4430-210 Vila Nova de Gaia, Portugal",
        "lat": 41.1371459,
        "long": -8.6092935,
        "type": "community garden",
        "location": "Paranhos, Porto"
    },
    {
        "name": "Urban Garden Porto Central Hostel",
        "address": "Rua da Alegria 291, 4000-044 Porto, Portugal",
        "lat": 41.1510487,
        "long": -8.604399899999999,
        "type": "community garden",
        "location": "Paranhos, Porto"
    },
    {
        "name": "Parque de São Roque",
        "address": "R. São Roque da Lameira 2040, 4350-307 Porto, Portugal",
        "lat": 41.15910239999999,
        "long": -8.5889002,
        "type": "community garden",
        "location": "Paranhos, Porto"
    },
    {
        "name": "Quinta do Covelo",
        "address": "Parque Covelo, R. de Bolama, 4200-042 Porto, Portugal",
        "lat": 41.1674237,
        "long": -8.6056232,
        "type": "community garden",
        "location": "Paranhos, Porto"
    },
    {
        "name": "Jardins do Palácio de Cristal",
        "address": "R. de Dom Manuel II, 4050-346 Porto, Portugal",
        "lat": 41.1482682,
        "long": -8.6255165,
        "type": "community garden",
        "location": "Paranhos, Porto"
    },
    {
        "name": "Jardim da Corujeira",
        "address": "Praça da Corujeira 26, 4300-200 Porto, Portugal",
        "lat": 41.1575068,
        "long": -8.579312999999999,
        "type": "community garden",
        "location": "Paranhos, Porto"
    },
    {
        "name": "Garden Porto",
        "address": "Rua de Fernandes Tomás 985, 4000-220 Porto, Portugal",
        "lat": 41.1506653,
        "long": -8.6100694,
        "type": "community garden",
        "location": "Paranhos, Porto"
    },
    {
        "name": "Parque infantil Associação de Moradores do Campo Alegre",
        "address": "R. João Martins Branco, 4150-431 Porto, Portugal",
        "lat": 41.156605,
        "long": -8.6359164,
        "type": "community garden",
        "location": "Paranhos, Porto"
    },
    {
        "name": "Jardim Botânico do Porto | Museu de História Natural e da Ciência da U.Porto",
        "address": "Rua do Campo Alegre 1191, 4150-181 Porto, Portugal",
        "lat": 41.1537575,
        "long": -8.6425514,
        "type": "community garden",
        "location": "Paranhos, Porto"
    },
    {
        "name": "Parque das Virtudes",
        "address": "Passeio das Virtudes 53-3, Porto, Portugal",
        "lat": 41.1447,
        "long": -8.6189879,
        "type": "community garden",
        "location": "Paranhos, Porto"
    },
    {
        "name": "Parque do Covelo",
        "address": "R. de Bolama 4200, 4200-137 Porto, Portugal",
        "lat": 41.1653667,
        "long": -8.6046553,
        "type": "community garden",
        "location": "Paranhos, Porto"
    },
    {
        "name": "Jardins da Rotunda da Boavista",
        "address": "Porto, Portugal",
        "lat": 41.1579513,
        "long": -8.6291391,
        "type": "community garden",
        "location": "Paranhos, Porto"
    },
    {
        "name": "Polo Universitário",
        "address": "4200-393 Porto, Portugal",
        "lat": 41.174247,
        "long": -8.603607,
        "type": "subway station",
        "location": "Paranhos, Porto"
    },
    {
        "name": "Aliados",
        "address": "4000-065 Porto, Portugal",
        "lat": 41.14858,
        "long": -8.610945,
        "type": "subway station",
        "location": "Paranhos, Porto"
    },
    {
        "name": "Combatentes",
        "address": "4200-223 Porto, Portugal",
        "lat": 41.165301,
        "long": -8.598464,
        "type": "subway station",
        "location": "Paranhos, Porto"
    },
    {
        "name": "Bolhão",
        "address": "4000-124 Porto, Portugal",
        "lat": 41.149785,
        "long": -8.605901,
        "type": "subway station",
        "location": "Paranhos, Porto"
    },
    {
        "name": "Trindade",
        "address": "4000-124 Porto, Portugal",
        "lat": 41.152277,
        "long": -8.609299,
        "type": "subway station",
        "location": "Paranhos, Porto"
    },
    {
        "name": "Faria Guimarães",
        "address": "4000-374 Porto, Portugal",
        "lat": 41.157219,
        "long": -8.609141,
        "type": "subway station",
        "location": "Paranhos, Porto"
    },
    {
        "name": "Bolhão (Metro)",
        "address": "4000-034 Porto, Portugal",
        "lat": 41.1496365,
        "long": -8.604932999999999,
        "type": "subway station",
        "location": "Paranhos, Porto"
    },
    {
        "name": "Estádio do Dragão",
        "address": "4350-415 Porto, Portugal",
        "lat": 41.1606506,
        "long": -8.5823393,
        "type": "subway station",
        "location": "Paranhos, Porto"
    },
    {
        "name": "Bolhão Metro Station",
        "address": "Rua de Fernandes Tomás 641 609, 4000-124 Porto, Portugal",
        "lat": 41.1497902,
        "long": -8.605895100000001,
        "type": "subway station",
        "location": "Paranhos, Porto"
    },
    {
        "name": "IPO",
        "address": "Porto, Portugal",
        "lat": 41.1812139,
        "long": -8.604495199999999,
        "type": "subway station",
        "location": "Paranhos, Porto"
    },
    {
        "name": "24 de Agosto",
        "address": "4300-096 Porto, Portugal",
        "lat": 41.1489133,
        "long": -8.5984801,
        "type": "subway station",
        "location": "Paranhos, Porto"
    },
    {
        "name": "Marquês",
        "address": "4000-390 Porto, Portugal",
        "lat": 41.161123,
        "long": -8.604272,
        "type": "subway station",
        "location": "Paranhos, Porto"
    },
    {
        "name": "São Bento",
        "address": "4000-069 Porto, Portugal",
        "lat": 41.1452094,
        "long": -8.6110131,
        "type": "subway station",
        "location": "Paranhos, Porto"
    },
    {
        "name": "Casa da Música",
        "address": "4050-276 Porto, Portugal",
        "lat": 41.160775,
        "long": -8.6282578,
        "type": "subway station",
        "location": "Paranhos, Porto"
    },
    {
        "name": "Porto São Bento",
        "address": "Praça de Almeida Garrett, 4000-069 Porto, Portugal",
        "lat": 41.145492,
        "long": -8.609544,
        "type": "subway station",
        "location": "Paranhos, Porto"
    },
    {
        "name": "Lapa",
        "address": "Porto, Portugal",
        "lat": 41.157107,
        "long": -8.616723,
        "type": "subway station",
        "location": "Paranhos, Porto"
    },
    {
        "name": "Salgueiros",
        "address": "Porto, Portugal",
        "lat": 41.169684,
        "long": -8.598744,
        "type": "subway station",
        "location": "Paranhos, Porto"
    },
    {
        "name": "Hospital São João",
        "address": "Porto, Portugal",
        "lat": 41.18326,
        "long": -8.60224,
        "type": "subway station",
        "location": "Paranhos, Porto"
    },
    {
        "name": "Campanhã",
        "address": "4300-273 Porto, Portugal",
        "lat": 41.15054809999999,
        "long": -8.5861994,
        "type": "subway station",
        "location": "Paranhos, Porto"
    },
    {
        "name": "Porto (Polo Universitário)",
        "address": "4200-393 Porto, Portugal",
        "lat": 41.1741851,
        "long": -8.603570399999999,
        "type": "subway station",
        "location": "Paranhos, Porto"
    },
    {
        "name": "Porto São Bento",
        "address": "Praça de Almeida Garrett, 4000-069 Porto, Portugal",
        "lat": 41.145492,
        "long": -8.609544,
        "type": "train station",
        "location": "Paranhos, Porto"
    },
    {
        "name": "Bolhão",
        "address": "4000-124 Porto, Portugal",
        "lat": 41.149785,
        "long": -8.605901,
        "type": "train station",
        "location": "Paranhos, Porto"
    },
    {
        "name": "Aliados",
        "address": "4000-065 Porto, Portugal",
        "lat": 41.14858,
        "long": -8.610945,
        "type": "train station",
        "location": "Paranhos, Porto"
    },
    {
        "name": "Sao Bento station",
        "address": "Praça de Almeida Garrett, 4000-069 Porto, Portugal",
        "lat": 41.1456119,
        "long": -8.610419799999999,
        "type": "train station",
        "location": "Paranhos, Porto"
    },
    {
        "name": "Campanha",
        "address": "4300-173 Porto, Portugal",
        "lat": 41.14881930000001,
        "long": -8.5854509,
        "type": "train station",
        "location": "Paranhos, Porto"
    },
    {
        "name": "Trindade",
        "address": "4000-124 Porto, Portugal",
        "lat": 41.152277,
        "long": -8.609299,
        "type": "train station",
        "location": "Paranhos, Porto"
    },
    {
        "name": "Bolhão Metro Station",
        "address": "Rua de Fernandes Tomás 641 609, 4000-124 Porto, Portugal",
        "lat": 41.1497902,
        "long": -8.605895100000001,
        "type": "train station",
        "location": "Paranhos, Porto"
    },
    {
        "name": "São Bento station",
        "address": "Av. Dom Afonso Henriques, 4000-069 Porto, Portugal",
        "lat": 41.1442942,
        "long": -8.6105935,
        "type": "train station",
        "location": "Paranhos, Porto"
    },
    {
        "name": "São Bento",
        "address": "4000-069 Porto, Portugal",
        "lat": 41.1452094,
        "long": -8.6110131,
        "type": "train station",
        "location": "Paranhos, Porto"
    },
    {
        "name": "Bolhão (Metro)",
        "address": "4000-034 Porto, Portugal",
        "lat": 41.1496365,
        "long": -8.604932999999999,
        "type": "train station",
        "location": "Paranhos, Porto"
    },
    {
        "name": "Átrio da Estação de São Bento",
        "address": "Praça de Almeida Garrett, 4000-069 Porto, Portugal",
        "lat": 41.1455957,
        "long": -8.6105377,
        "type": "train station",
        "location": "Paranhos, Porto"
    },
    {
        "name": "Batalha",
        "address": "4000-160 Porto, Portugal",
        "lat": 41.143277,
        "long": -8.608177999999999,
        "type": "train station",
        "location": "Paranhos, Porto"
    },
    {
        "name": "Estação de São Bento",
        "address": "Praça de Almeida Garrett, 4000-069 Porto, Portugal",
        "lat": 41.1457602,
        "long": -8.610400499999999,
        "type": "train station",
        "location": "Paranhos, Porto"
    },
    {
        "name": "Porto",
        "address": "4300-096 Porto, Portugal",
        "lat": 41.14976,
        "long": -8.59901,
        "type": "train station",
        "location": "Paranhos, Porto"
    },
    {
        "name": "24 de Agosto",
        "address": "4300-096 Porto, Portugal",
        "lat": 41.1489133,
        "long": -8.5984801,
        "type": "train station",
        "location": "Paranhos, Porto"
    },
    {
        "name": "S.Bento",
        "address": "4000-069 Porto, Portugal",
        "lat": 41.144697,
        "long": -8.6108428,
        "type": "train station",
        "location": "Paranhos, Porto"
    },
    {
        "name": "Campanhã",
        "address": "4300-273 Porto, Portugal",
        "lat": 41.15054809999999,
        "long": -8.5861994,
        "type": "train station",
        "location": "Paranhos, Porto"
    },
    {
        "name": "General Torres",
        "address": "4430-189 Vila Nova de Gaia, Portugal",
        "lat": 41.13348999999999,
        "long": -8.607400000000002,
        "type": "train station",
        "location": "Paranhos, Porto"
    },
    {
        "name": "Vila Nova de Gaia",
        "address": "Largo 5 de Outubro, 4400-336 Vila Nova de Gaia, Portugal",
        "lat": 41.1296755,
        "long": -8.6201884,
        "type": "train station",
        "location": "Paranhos, Porto"
    },
    {
        "name": "Casa da Música",
        "address": "4050-276 Porto, Portugal",
        "lat": 41.160775,
        "long": -8.6282578,
        "type": "train station",
        "location": "Paranhos, Porto"
    },
    {
        "name": "Academia Bomfim Porto",
        "address": "R. de Cedofeita 167, 4050-179 Porto, Portugal",
        "lat": 41.1506018,
        "long": -8.617172799999999,
        "type": "primary school",
        "location": "Bonfim, Porto"
    },
    {
        "name": "Agrupamento Escolas Aurélia de Sousa",
        "address": "R. Aurélia de Sousa, 4000-099 Bonfim, Porto, Portugal",
        "lat": 41.1600058,
        "long": -8.5996202,
        "type": "primary school",
        "location": "Bonfim, Porto"
    },
    {
        "name": "School E B 2.3 Ramalho Ortigão",
        "address": "R. Dr. Sousa Ávides 72, 4300-487 Porto, Portugal",
        "lat": 41.1517577,
        "long": -8.589972999999999,
        "type": "primary school",
        "location": "Bonfim, Porto"
    },
    {
        "name": "Salesians of Porto - College",
        "address": "Largo do Padre Baltasar Guedes 248, 4300-059 Porto, Portugal",
        "lat": 41.141233,
        "long": -8.5953921,
        "type": "primary school",
        "location": "Bonfim, Porto"
    },
    {
        "name": "Casa Nossa Senhora da Conceição - ATNP",
        "address": "R. do Conde de Vilas Boas 126, 4250-048 Porto, Portugal",
        "lat": 41.1649189,
        "long": -8.622779,
        "type": "primary school",
        "location": "Bonfim, Porto"
    },
    {
        "name": "EB1/JI do Cerco",
        "address": "R. Vila Nova de Foz Côa 31 4300, Porto, Portugal",
        "lat": 41.1616578,
        "long": -8.5674871,
        "type": "primary school",
        "location": "Bonfim, Porto"
    },
    {
        "name": "Externato Ribadouro",
        "address": "R. de Santa Catarina 1346, 4000-447 Porto, Portugal",
        "lat": 41.158141,
        "long": -8.603907,
        "type": "primary school",
        "location": "Bonfim, Porto"
    },
    {
        "name": "Stacey",
        "address": "R. de Pedro Hispano 218, Porto, Portugal",
        "lat": 41.1609873,
        "long": -8.6392388,
        "type": "primary school",
        "location": "Bonfim, Porto"
    },
    {
        "name": "Escola Básica de 1.º CEB das Florinhas",
        "address": "R. da Escola Normal 28, 4000-099 Porto, Portugal",
        "lat": 41.1547237,
        "long": -8.6033511,
        "type": "primary school",
        "location": "Bonfim, Porto"
    },
    {
        "name": "School Santa Maria",
        "address": "R. de Guerra Junqueiro 597, Porto, Portugal",
        "lat": 41.1583231,
        "long": -8.6362879,
        "type": "primary school",
        "location": "Bonfim, Porto"
    },
    {
        "name": "Mercearia Guimarães",
        "address": "R. das Flores 20, 4050-416 Porto, Portugal",
        "lat": 41.1434603,
        "long": -8.614359799999999,
        "type": "primary school",
        "location": "Bonfim, Porto"
    },
    {
        "name": "Escola Montessori do Porto",
        "address": "Av. do Dr. Antunes Guimarães 423, 4100-080 Porto, Portugal",
        "lat": 41.1670844,
        "long": -8.6603268,
        "type": "primary school",
        "location": "Bonfim, Porto"
    },
    {
        "name": "Escola Básica N.º1 do Campo 24 de Agosto",
        "address": "Campo 24 de Agosto 312, 4300-096 Porto, Portugal",
        "lat": 41.1481344,
        "long": -8.5985854,
        "type": "primary school",
        "location": "Bonfim, Porto"
    },
    {
        "name": "Senhor Do Bonfim - A.S.S.",
        "address": "R. do Padre António Vieira 97, 4300-031 Porto, Portugal",
        "lat": 41.1481146,
        "long": -8.588801499999999,
        "type": "primary school",
        "location": "Bonfim, Porto"
    },
    {
        "name": "Escola da Alegria",
        "address": "Praça da Alegria, 4000-027 Porto, Portugal",
        "lat": 41.1440552,
        "long": -8.6000695,
        "type": "primary school",
        "location": "Bonfim, Porto"
    },
    {
        "name": "Colégio de Nossa Senhora da Esperança",
        "address": "Av. de Rodrigues de Freitas 339, 4000-507 Porto, Portugal",
        "lat": 41.1455107,
        "long": -8.6024291,
        "type": "primary school",
        "location": "Bonfim, Porto"
    },
    {
        "name": "Lyceum Don Manuel II / Secondary School Rodrigues de Freitas",
        "address": "Praça de Pedro Nunes, 4050-466 Porto, Portugal",
        "lat": 41.1556265,
        "long": -8.6231306,
        "type": "primary school",
        "location": "Bonfim, Porto"
    },
    {
        "name": "Colégio Primeiros Passos",
        "address": "R. de Guerra Junqueiro 577, 4150-389 Porto, Portugal",
        "lat": 41.1580464,
        "long": -8.6364386,
        "type": "primary school",
        "location": "Bonfim, Porto"
    },
    {
        "name": "Professional School Bento de Jesus Caraça",
        "address": "R. do Bonjardim 497, 4000-125 Porto, Portugal",
        "lat": 41.1515636,
        "long": -8.608443099999999,
        "type": "primary school",
        "location": "Bonfim, Porto"
    },
    {
        "name": "Primary School Montebello (EB1 / JI)",
        "address": "Escola Básica do 1.º Ciclo de Montebello, R. de Alcântara 300 4350, Porto, Portugal",
        "lat": 41.1713396,
        "long": -8.584488799999999,
        "type": "primary school",
        "location": "Bonfim, Porto"
    },
    {
        "name": "University of Porto",
        "address": "Praça de Gomes Teixeira, 4099-002 Porto, Portugal",
        "lat": 41.1465479,
        "long": -8.6156998,
        "type": "university",
        "location": "Bonfim, Porto"
    },
    {
        "name": "Faculdade de Ciências da Universidade do Porto",
        "address": "Rua do Campo Alegre s/n, 4169-007 Porto, Portugal",
        "lat": 41.1517879,
        "long": -8.6366093,
        "type": "university",
        "location": "Bonfim, Porto"
    },
    {
        "name": "FEP - Faculdade de Economia da Universidade do Porto",
        "address": "R. Dr. Roberto Frias, 4200-464 Porto, Portugal",
        "lat": 41.1752444,
        "long": -8.5987375,
        "type": "university",
        "location": "Bonfim, Porto"
    },
    {
        "name": "Explicações Bonfim",
        "address": "R. do Duque da Terceira 425 1 Esq, 4000-534 Porto, Portugal",
        "lat": 41.1476906,
        "long": -8.5990612,
        "type": "university",
        "location": "Bonfim, Porto"
    },
    {
        "name": "Faculdade de Letras da Universidade do Porto",
        "address": "Via Panorâmica Edgar Cardoso s / n, 4150-564 Porto, Portugal",
        "lat": 41.1510585,
        "long": -8.6325751,
        "type": "university",
        "location": "Bonfim, Porto"
    },
    {
        "name": "Faculdade de Belas Artes da Universidade do Porto",
        "address": "Av. de Rodrigues de Freitas 265, 4049–021 Porto, Portugal",
        "lat": 41.14565590000001,
        "long": -8.600819999999999,
        "type": "university",
        "location": "Bonfim, Porto"
    },
    {
        "name": "Porto School of Architecture",
        "address": "Via Panorâmica Edgar Cardoso 215, 4150-564 Porto, Portugal",
        "lat": 41.1504489,
        "long": -8.6361715,
        "type": "university",
        "location": "Bonfim, Porto"
    },
    {
        "name": "Faculdade de Medicina da Universidade do Porto - FMUP",
        "address": "Alameda Prof. Hernâni Monteiro, 4200-319 Porto, Portugal",
        "lat": 41.1790259,
        "long": -8.599789099999999,
        "type": "university",
        "location": "Bonfim, Porto"
    },
    {
        "name": "UPT - Universidade Portucalense",
        "address": "R. Dr. António Bernardino de Almeida 541, 4200-072 Porto, Portugal",
        "lat": 41.18029019999999,
        "long": -8.6069488,
        "type": "university",
        "location": "Bonfim, Porto"
    },
    {
        "name": "Universidade do Porto",
        "address": "Rua de Oliveira Monteiro 110, 4050-442 Porto, Portugal",
        "lat": 41.1595373,
        "long": -8.6250166,
        "type": "university",
        "location": "Bonfim, Porto"
    },
    {
        "name": "Faculdade de Ciências da Nutrição e Alimentação da Universidade do Porto",
        "address": "Rua do Campo Alegre 823, 4150-180 Porto, Portugal",
        "lat": 41.15234960000001,
        "long": -8.6386734,
        "type": "university",
        "location": "Bonfim, Porto"
    },
    {
        "name": "Unidade de Inovação Educativa (U.Porto)",
        "address": "Praça do Cel. Pacheco 15, 4050-453 Porto, Portugal",
        "lat": 41.1516244,
        "long": -8.6151226,
        "type": "university",
        "location": "Bonfim, Porto"
    },
    {
        "name": "Flup",
        "address": "Faculdade de Letras da Universidade do Porto, 4150-755 Porto, Portugal",
        "lat": 41.1510321,
        "long": -8.6326289,
        "type": "university",
        "location": "Bonfim, Porto"
    },
    {
        "name": "University",
        "address": "R. Manuel Pinto de Azevedo 748, 4100-320 Porto, Portugal",
        "lat": 41.1755979,
        "long": -8.6499309,
        "type": "university",
        "location": "Bonfim, Porto"
    },
    {
        "name": "Faculty of Sport of University of Porto",
        "address": "Faculdade de Desporto de Universidade do Porto, R. Dr. Plácido da Costa 91, 4200-450 Porto, Portugal",
        "lat": 41.17856769999999,
        "long": -8.6001876,
        "type": "university",
        "location": "Bonfim, Porto"
    },
    {
        "name": "Universidade Sénior Contemporânea",
        "address": "R. Nova do Tronco 504, 4250-339 Porto, Portugal",
        "lat": 41.1821961,
        "long": -8.616319599999999,
        "type": "university",
        "location": "Bonfim, Porto"
    },
    {
        "name": "Escola Superior de Música e Artes do Espectáculo",
        "address": "Rua da Alegria 503, 4000-045 Porto, Portugal",
        "lat": 41.154318,
        "long": -8.6033036,
        "type": "university",
        "location": "Bonfim, Porto"
    },
    {
        "name": "Universidade Portucalense",
        "address": "R. de António Carneiro 425, 4300-025 Porto, Portugal",
        "lat": 41.1802904,
        "long": -8.6069365,
        "type": "university",
        "location": "Bonfim, Porto"
    },
    {
        "name": "Reitoria da Universidade do Porto",
        "address": "Praça de Gomes Teixeira, 4099-002 Porto, Portugal",
        "lat": 41.1468068,
        "long": -8.6156993,
        "type": "university",
        "location": "Bonfim, Porto"
    },
    {
        "name": "Museu de História Natural e da Ciência da Universidade do Porto",
        "address": "Campo dos Mártires da Pátria 81, 4050-368 Porto, Portugal",
        "lat": 41.1461734,
        "long": -8.615831,
        "type": "university",
        "location": "Bonfim, Porto"
    },
    {
        "name": "Hospital CUF Trindade",
        "address": "Rua da Trindade 115, 4000-541 Porto, Portugal",
        "lat": 41.1516143,
        "long": -8.6097719,
        "type": "hospital",
        "location": "Bonfim, Porto"
    },
    {
        "name": "Bonfim Central Clinic",
        "address": "Av. de Fernão de Magalhães 442, 4349-008 Porto, Portugal",
        "lat": 41.1537275,
        "long": -8.595926,
        "type": "hospital",
        "location": "Bonfim, Porto"
    },
    {
        "name": "Bonfim Health Center",
        "address": "R. do Barão de Nova Sintra 244, 4300-367 Porto, Portugal",
        "lat": 41.1453083,
        "long": -8.5901093,
        "type": "hospital",
        "location": "Bonfim, Porto"
    },
    {
        "name": "Hospital de Santa Maria - Porto",
        "address": "Rua de Camões 906, 4049-025 Porto, Portugal",
        "lat": 41.1600076,
        "long": -8.6095796,
        "type": "hospital",
        "location": "Bonfim, Porto"
    },
    {
        "name": "Hospital de São Francisco do Porto",
        "address": "R. da Bolsa 80, 4050-116 Porto, Portugal",
        "lat": 41.1417406,
        "long": -8.6164089,
        "type": "hospital",
        "location": "Bonfim, Porto"
    },
    {
        "name": "Porto",
        "address": "R. de Ceuta 47, 4050-191 Porto, Portugal",
        "lat": 41.1480952,
        "long": -8.6137912,
        "type": "hospital",
        "location": "Bonfim, Porto"
    },
    {
        "name": "Venerável Ordem Terceira de São Francisco do Porto",
        "address": "4050-209 Porto, Portugal",
        "lat": 41.1418384,
        "long": -8.6160527,
        "type": "hospital",
        "location": "Bonfim, Porto"
    },
    {
        "name": "Hospital Conde de Ferreira",
        "address": "Rua de Costa Cabral 1211, 4200-227 Porto, Portugal",
        "lat": 41.1702654,
        "long": -8.589646,
        "type": "hospital",
        "location": "Bonfim, Porto"
    },
    {
        "name": "Fundação AMI-Assistência Médica Internacional",
        "address": "R. da Lomba 153, 4300-298 Porto, Portugal",
        "lat": 41.1493268,
        "long": -8.590361,
        "type": "hospital",
        "location": "Bonfim, Porto"
    },
    {
        "name": "hospital universitario de santo antonio",
        "address": "Terminal Intermodal, 4300 Porto, Portugal",
        "lat": 41.1517372,
        "long": -8.5828803,
        "type": "hospital",
        "location": "Bonfim, Porto"
    },
    {
        "name": "Hospital Geral de Santo António",
        "address": "R. Dr. Tiago de Almeida, 4050-342 Porto, Portugal",
        "lat": 41.1464218,
        "long": -8.619593199999999,
        "type": "hospital",
        "location": "Bonfim, Porto"
    },
    {
        "name": "Centro Histocompatibilidade Do Norte",
        "address": "R. Dr. Roberto Frias, 4200-465 Porto, Portugal",
        "lat": 41.1784846,
        "long": -8.5989177,
        "type": "hospital",
        "location": "Bonfim, Porto"
    },
    {
        "name": "Hospital Lusíadas Porto",
        "address": "Av. da Boavista 171, 4050-115 Porto, Portugal",
        "lat": 41.157245,
        "long": -8.625944,
        "type": "hospital",
        "location": "Bonfim, Porto"
    },
    {
        "name": "CLINICA",
        "address": "R. Artur de Sousa 2005, 4350-171 Porto, Portugal",
        "lat": 41.1666266,
        "long": -8.5886957,
        "type": "hospital",
        "location": "Bonfim, Porto"
    },
    {
        "name": "Centro hospitalar",
        "address": "Largo da Maternidade de Júlio Dinis 21, 4050-101 Porto, Portugal",
        "lat": 41.15067699999999,
        "long": -8.6233946,
        "type": "hospital",
        "location": "Bonfim, Porto"
    },
    {
        "name": "EPIPorto",
        "address": "R. Dr. Plácido da Costa, 4200-450 Porto, Portugal",
        "lat": 41.1794125,
        "long": -8.6021666,
        "type": "hospital",
        "location": "Bonfim, Porto"
    },
    {
        "name": "Atlantic Health Clinic",
        "address": "Estádio Dragão Entrada Nascente, 4350-415 Porto, Portugal",
        "lat": 41.1606835,
        "long": -8.5850961,
        "type": "hospital",
        "location": "Bonfim, Porto"
    },
    {
        "name": "Casa de Saúde de Santa Catarina (CSSC)",
        "address": "R. de Santa Catarina 1489, 4000-099 Porto, Portugal",
        "lat": 41.159422,
        "long": -8.6045908,
        "type": "hospital",
        "location": "Bonfim, Porto"
    },
    {
        "name": "Hospital da Lapa",
        "address": "Largo da Lapa 1, 4050-069 Porto, Portugal",
        "lat": 41.1570511,
        "long": -8.6128717,
        "type": "hospital",
        "location": "Bonfim, Porto"
    },
    {
        "name": "Medilabor",
        "address": "Praça da República 56, Porto, Portugal",
        "lat": 41.1537977,
        "long": -8.613504899999999,
        "type": "hospital",
        "location": "Bonfim, Porto"
    },
    {
        "name": "Agrupamento Escolas Aurélia de Sousa",
        "address": "R. Aurélia de Sousa, 4000-099 Bonfim, Porto, Portugal",
        "lat": 41.1600058,
        "long": -8.5996202,
        "type": "school",
        "location": "Bonfim, Porto"
    },
    {
        "name": "Academia Bomfim Porto",
        "address": "R. de Cedofeita 167, 4050-179 Porto, Portugal",
        "lat": 41.1506018,
        "long": -8.617172799999999,
        "type": "school",
        "location": "Bonfim, Porto"
    },
    {
        "name": "Externato Santa Clara",
        "address": "R. de Dom João IV 99, 4000-301 Porto, Portugal",
        "lat": 41.1473542,
        "long": -8.6020556,
        "type": "school",
        "location": "Bonfim, Porto"
    },
    {
        "name": "Senhor Do Bonfim - A.S.S.",
        "address": "R. do Padre António Vieira 97, 4300-031 Porto, Portugal",
        "lat": 41.1481146,
        "long": -8.588801499999999,
        "type": "school",
        "location": "Bonfim, Porto"
    },
    {
        "name": "Cambridge School - Porto",
        "address": "R. do Duque da Terceira 381 1º, 4000-537 Porto, Portugal",
        "lat": 41.1472813,
        "long": -8.5989196,
        "type": "school",
        "location": "Bonfim, Porto"
    },
    {
        "name": "Salesians of Porto - College",
        "address": "Largo do Padre Baltasar Guedes 248, 4300-059 Porto, Portugal",
        "lat": 41.141233,
        "long": -8.5953921,
        "type": "school",
        "location": "Bonfim, Porto"
    },
    {
        "name": "Aurélia de Sousa Secondary School",
        "address": "R. Aurélia de Sousa 40, 4000-039 Porto, Portugal",
        "lat": 41.1598846,
        "long": -8.5995555,
        "type": "school",
        "location": "Bonfim, Porto"
    },
    {
        "name": "High School Alexandre Herculano",
        "address": "Av. de Camilo s/n, 4300-096 Porto, Portugal",
        "lat": 41.1487425,
        "long": -8.5946006,
        "type": "school",
        "location": "Bonfim, Porto"
    },
    {
        "name": "Escola Básica de 1.º CEB das Florinhas",
        "address": "R. da Escola Normal 28, 4000-099 Porto, Portugal",
        "lat": 41.1547237,
        "long": -8.6033511,
        "type": "school",
        "location": "Bonfim, Porto"
    },
    {
        "name": "Fofinhos",
        "address": "R. Joaquim António de Aguiar 40, 4000-309 Porto, Portugal",
        "lat": 41.1445227,
        "long": -8.5987682,
        "type": "school",
        "location": "Bonfim, Porto"
    },
    {
        "name": "Escola da Alegria",
        "address": "Praça da Alegria, 4000-027 Porto, Portugal",
        "lat": 41.1440552,
        "long": -8.6000695,
        "type": "school",
        "location": "Bonfim, Porto"
    },
    {
        "name": "Externato Ribadouro",
        "address": "R. de Santa Catarina 1346, 4000-447 Porto, Portugal",
        "lat": 41.158141,
        "long": -8.603907,
        "type": "school",
        "location": "Bonfim, Porto"
    },
    {
        "name": "College CBE Port",
        "address": "R. de São Dinis 76, 4250-425 Porto, Portugal",
        "lat": 41.1671006,
        "long": -8.6222014,
        "type": "school",
        "location": "Bonfim, Porto"
    },
    {
        "name": "School E B 2.3 Ramalho Ortigão",
        "address": "R. Dr. Sousa Ávides 72, 4300-487 Porto, Portugal",
        "lat": 41.1517577,
        "long": -8.589972999999999,
        "type": "school",
        "location": "Bonfim, Porto"
    },
    {
        "name": "Colégio Luso-Francês",
        "address": "Rua do Amial 442, 4200-055 Porto, Portugal",
        "lat": 41.176801,
        "long": -8.6139849,
        "type": "school",
        "location": "Bonfim, Porto"
    },
    {
        "name": "College D.Dinis",
        "address": "R. de Santa Catarina 220, 4000-247 Porto, Portugal",
        "lat": 41.14794759999999,
        "long": -8.6062652,
        "type": "school",
        "location": "Bonfim, Porto"
    },
    {
        "name": "Deutsche Schule zu Porto",
        "address": "R. de Guerra Junqueiro 162, Porto, Portugal",
        "lat": 41.1543905,
        "long": -8.6375646,
        "type": "school",
        "location": "Bonfim, Porto"
    },
    {
        "name": "French School of Porto",
        "address": "R. Gil Eanes 27, 4150-348 Porto, Portugal",
        "lat": 41.1573065,
        "long": -8.6598588,
        "type": "school",
        "location": "Bonfim, Porto"
    },
    {
        "name": "Oporto British School",
        "address": "Rua da Cerca 338, 4150-201 Porto, Portugal",
        "lat": 41.1525735,
        "long": -8.6735992,
        "type": "school",
        "location": "Bonfim, Porto"
    },
    {
        "name": "Escola de Condução Bastos",
        "address": "Av. de Fernão de Magalhães 15, 4300-190 Porto, Portugal",
        "lat": 41.1506902,
        "long": -8.5980726,
        "type": "school",
        "location": "Bonfim, Porto"
    },
    {
        "name": "Junta de Freguesia do Bonfim",
        "address": "Campo 24 de Agosto 294, 4300-506 Porto, Portugal",
        "lat": 41.1482045,
        "long": -8.5984264,
        "type": "public office",
        "location": "Bonfim, Porto"
    },
    {
        "name": "Central Telefónica do Bonfim",
        "address": "R. do Bonfim 490, 4300-123 Porto, Portugal",
        "lat": 41.1510763,
        "long": -8.5928503,
        "type": "public office",
        "location": "Bonfim, Porto"
    },
    {
        "name": "PSD Bonfim",
        "address": "Av. de Rodrigues de Freitas 46, 4300-096 Porto, Portugal",
        "lat": 41.1460922,
        "long": -8.5968688,
        "type": "public office",
        "location": "Bonfim, Porto"
    },
    {
        "name": "Bonfim Health Center",
        "address": "R. do Barão de Nova Sintra 244, 4300-367 Porto, Portugal",
        "lat": 41.1453083,
        "long": -8.5901093,
        "type": "public office",
        "location": "Bonfim, Porto"
    },
    {
        "name": "Reservatório do Bonfim",
        "address": "4300-067 Porto, Portugal",
        "lat": 41.1513959,
        "long": -8.5944685,
        "type": "public office",
        "location": "Bonfim, Porto"
    },
    {
        "name": "Postfiliale / sehr schlechte",
        "address": "R. do Bonfim 90, 4300-295 Porto, Portugal",
        "lat": 41.1486249,
        "long": -8.5977456,
        "type": "public office",
        "location": "Bonfim, Porto"
    },
    {
        "name": "Loja CTT",
        "address": "R. do Bonfim 90, 4300-096 Porto, Portugal",
        "lat": 41.1486239,
        "long": -8.5977441,
        "type": "public office",
        "location": "Bonfim, Porto"
    },
    {
        "name": "PSP Bonfim",
        "address": "Rua do Heroísmo nº 218, 4300-255 Porto, Portugal",
        "lat": 41.1466188,
        "long": -8.5923961,
        "type": "public office",
        "location": "Bonfim, Porto"
    },
    {
        "name": "Gabinete do Munícipe",
        "address": "Praça Gen. Humberto Delgado 266, 4000-286 Porto, Portugal",
        "lat": 41.1493243,
        "long": -8.6102095,
        "type": "public office",
        "location": "Bonfim, Porto"
    },
    {
        "name": "Direção Municipal de Recursos Humanos (DMGPOP)",
        "address": "R. do Bolhão 192, 4000-437 Porto, Portugal",
        "lat": 41.1519334,
        "long": -8.6069119,
        "type": "public office",
        "location": "Bonfim, Porto"
    },
    {
        "name": "SNS24 - Centro de Contacto do Serviço Nacional de Saúde",
        "address": "R. do Dr. Alfredo Magalhães 24, 4000-265 Porto, Portugal",
        "lat": 41.1542806,
        "long": -8.6094323,
        "type": "public office",
        "location": "Bonfim, Porto"
    },
    {
        "name": "Espaço Cidadão",
        "address": "Campo 24 de Agosto 294, 4300-506 Porto, Portugal",
        "lat": 41.1482083,
        "long": -8.5984286,
        "type": "public office",
        "location": "Bonfim, Porto"
    },
    {
        "name": "Family Health Unit Porto Centro",
        "address": "Rua de Santos Pousada 297 1º, 4000-486 Porto, Portugal",
        "lat": 41.1514479,
        "long": -8.6003072,
        "type": "public office",
        "location": "Bonfim, Porto"
    },
    {
        "name": "UPS Access Point",
        "address": "R. do Bonfim 84 88, 4300-066 Porto, Portugal",
        "lat": 41.148443,
        "long": -8.597890099999999,
        "type": "public office",
        "location": "Bonfim, Porto"
    },
    {
        "name": "Porto 1 Finance Service",
        "address": "R. de Pinto Bessa 606, 4300-428 Porto, Portugal",
        "lat": 41.150742,
        "long": -8.592571399999999,
        "type": "public office",
        "location": "Bonfim, Porto"
    },
    {
        "name": "Tribunal de Turno da Comarca do Porto",
        "address": "Rua de Camões 139 (garagem do n.° 155, 4049-074 Porto, Portugal",
        "lat": 41.1531729,
        "long": -8.6101736,
        "type": "public office",
        "location": "Bonfim, Porto"
    },
    {
        "name": "Porto City Hall",
        "address": "Praça Gen. Humberto Delgado, 4049-001 Porto, Portugal",
        "lat": 41.1499084,
        "long": -8.6107023,
        "type": "public office",
        "location": "Bonfim, Porto"
    },
    {
        "name": "USF Santos Pousada",
        "address": "Rua de Santos Pousada 297, 4000-486 Porto, Portugal",
        "lat": 41.1514366,
        "long": -8.600164999999999,
        "type": "public office",
        "location": "Bonfim, Porto"
    },
    {
        "name": "משרד הפנים פורטו",
        "address": "Rua de Camões, 4000-124 Porto, Portugal",
        "lat": 41.1520287,
        "long": -8.6100356,
        "type": "public office",
        "location": "Bonfim, Porto"
    },
    {
        "name": "Águas do Porto, E.M",
        "address": "R. do Barão de Nova Sintra 285, 4300-367 Porto, Portugal",
        "lat": 41.1454835,
        "long": -8.5912878,
        "type": "public office",
        "location": "Bonfim, Porto"
    },
    {
        "name": "ViaCatarina Shopping",
        "address": "R. de Santa Catarina 312 a 350, 4000-443 Porto, Portugal",
        "lat": 41.1490625,
        "long": -8.6051555,
        "type": "shopping mall",
        "location": "Bonfim, Porto"
    },
    {
        "name": "Shopping Cidade do Porto",
        "address": "R. de Gonçalo Sampaio 350, 4150-365 Porto, Portugal",
        "lat": 41.1549001,
        "long": -8.6297172,
        "type": "shopping mall",
        "location": "Bonfim, Porto"
    },
    {
        "name": "Fontenário Shopping Center",
        "address": "R. do Bonfim 3-37, 4300-401 Porto, Portugal",
        "lat": 41.1547813,
        "long": -8.5912948,
        "type": "shopping mall",
        "location": "Bonfim, Porto"
    },
    {
        "name": "Alameda Shop & Spot",
        "address": "R. dos Campeões Europeus 28, 4350-414 Porto, Portugal",
        "lat": 41.1637391,
        "long": -8.5841842,
        "type": "shopping mall",
        "location": "Bonfim, Porto"
    },
    {
        "name": "NorteShopping",
        "address": "R. Sara Afonso, 4460-841 Sra. da Hora, Portugal",
        "lat": 41.1808164,
        "long": -8.6545763,
        "type": "shopping mall",
        "location": "Bonfim, Porto"
    },
    {
        "name": "Trinity Porto",
        "address": "R. dos Heróis e dos Mártires de Angola 49, 4000-285 Porto, Portugal",
        "lat": 41.1513236,
        "long": -8.610782799999999,
        "type": "shopping mall",
        "location": "Bonfim, Porto"
    },
    {
        "name": "Shopping Brasília",
        "address": "Praça de Mouzinho de Albuquerque 113, 4100-359 Porto, Portugal",
        "lat": 41.1575628,
        "long": -8.627837,
        "type": "shopping mall",
        "location": "Bonfim, Porto"
    },
    {
        "name": "El Corte Inglés Gaia Porto",
        "address": "Av. da República 1435, 4430-999 Vila Nova de Gaia, Portugal",
        "lat": 41.125628,
        "long": -8.6048077,
        "type": "shopping mall",
        "location": "Bonfim, Porto"
    },
    {
        "name": "CC Bombarda",
        "address": "Rua de Miguel Bombarda 285, 4050-381 Porto, Portugal",
        "lat": 41.1496048,
        "long": -8.620330599999999,
        "type": "shopping mall",
        "location": "Bonfim, Porto"
    },
    {
        "name": "Galeria Comercial do Campus São João",
        "address": "R. Dr. Plácido da Costa, 4200-450 Porto, Portugal",
        "lat": 41.1804102,
        "long": -8.604160199999999,
        "type": "shopping mall",
        "location": "Bonfim, Porto"
    },
    {
        "name": "ArrábidaShopping",
        "address": "PCT de Henrique Moreira 244, 4400-346 Vila Nova de Gaia, Portugal",
        "lat": 41.1414625,
        "long": -8.6364535,
        "type": "shopping mall",
        "location": "Bonfim, Porto"
    },
    {
        "name": "Centro Comercial STOP",
        "address": "Rua do Heroísmo 329, 4300-096 Porto, Portugal",
        "lat": 41.1460067,
        "long": -8.5949293,
        "type": "shopping mall",
        "location": "Bonfim, Porto"
    },
    {
        "name": "Centro Comercial de Cedofeita",
        "address": "R. de Cedofeita 451, 4050-181 Porto, Portugal",
        "lat": 41.15455,
        "long": -8.6191472,
        "type": "shopping mall",
        "location": "Bonfim, Porto"
    },
    {
        "name": "Praça de Lisboa",
        "address": "4050-162 Porto, Portugal",
        "lat": 41.146253,
        "long": -8.614920999999999,
        "type": "shopping mall",
        "location": "Bonfim, Porto"
    },
    {
        "name": "Palace of Commerce",
        "address": "R. de Sá da Bandeira 491, 4000-111 Porto, Portugal",
        "lat": 41.1506536,
        "long": -8.607168,
        "type": "shopping mall",
        "location": "Bonfim, Porto"
    },
    {
        "name": "Mercado do Bolhão",
        "address": "R. Formosa 322, 4000-248 Porto, Portugal",
        "lat": 41.1493855,
        "long": -8.6071175,
        "type": "shopping mall",
        "location": "Bonfim, Porto"
    },
    {
        "name": "Multibanco",
        "address": "R. de Dom Manuel II 260, 4050-014 Porto, Portugal",
        "lat": 41.1473704,
        "long": -8.6215084,
        "type": "shopping mall",
        "location": "Bonfim, Porto"
    },
    {
        "name": "World Trade Center Porto",
        "address": "Av. da Boavista 1277, 4100-130 Porto, Portugal",
        "lat": 41.1592613,
        "long": -8.6387431,
        "type": "shopping mall",
        "location": "Bonfim, Porto"
    },
    {
        "name": "GaiaShopping",
        "address": "Av. dos Descobrimentos 549, 4404-503 Vila Nova de Gaia, Portugal",
        "lat": 41.1182562,
        "long": -8.6226153,
        "type": "shopping mall",
        "location": "Bonfim, Porto"
    },
    {
        "name": "Shopping Center Itália",
        "address": "Shopping Center Itália, Rua de Júlio Dinis 700 - 850, 4050-012 Porto, Portugal",
        "lat": 41.1556714,
        "long": -8.6264939,
        "type": "shopping mall",
        "location": "Bonfim, Porto"
    },
    {
        "name": "Miradouro das Fontainhas",
        "address": "R. de Gomes Freire 18, 4000-238 Porto, Portugal",
        "lat": 41.142599,
        "long": -8.601300499999999,
        "type": "tourist attraction",
        "location": "Bonfim, Porto"
    },
    {
        "name": "Torre dos Clérigos",
        "address": "R. de São Filipe de Nery, 4050-546 Porto, Portugal",
        "lat": 41.1456705,
        "long": -8.6145977,
        "type": "tourist attraction",
        "location": "Bonfim, Porto"
    },
    {
        "name": "Palácio da Bolsa",
        "address": "R. de Ferreira Borges, 4050-253 Porto, Portugal",
        "lat": 41.1413772,
        "long": -8.615672499999999,
        "type": "tourist attraction",
        "location": "Bonfim, Porto"
    },
    {
        "name": "vuelo 5D dragon",
        "address": "R. de Sá da Bandeira 198, 4000-381 Porto, Portugal",
        "lat": 41.147893,
        "long": -8.6082438,
        "type": "tourist attraction",
        "location": "Bonfim, Porto"
    },
    {
        "name": "Clérigos Church",
        "address": "R. de São Filipe de Nery, 4050-546 Porto, Portugal",
        "lat": 41.1458838,
        "long": -8.6139451,
        "type": "tourist attraction",
        "location": "Bonfim, Porto"
    },
    {
        "name": "Porto Cathedral",
        "address": "Terreiro da Sé, 4050-573 Porto, Portugal",
        "lat": 41.1428531,
        "long": -8.6111165,
        "type": "tourist attraction",
        "location": "Bonfim, Porto"
    },
    {
        "name": "Church of Saint Francis",
        "address": "Rua do Infante D. Henrique, 4050-297 Porto, Portugal",
        "lat": 41.1410065,
        "long": -8.616031,
        "type": "tourist attraction",
        "location": "Bonfim, Porto"
    },
    {
        "name": "Church of Saint Ildefonso",
        "address": "Praça da Batalha s/n, 4000-101 Porto, Portugal",
        "lat": 41.1460999,
        "long": -8.6066989,
        "type": "tourist attraction",
        "location": "Bonfim, Porto"
    },
    {
        "name": "Antigo Asilo de Mendicidade do Porto",
        "address": "4000-238 Bonfim, Portugal",
        "lat": 41.1433219,
        "long": -8.6013746,
        "type": "tourist attraction",
        "location": "Bonfim, Porto"
    },
    {
        "name": "Muralha Fernandina",
        "address": "Escadas do Caminho Novo 17, 4000-173 Porto, Portugal",
        "lat": 41.1415444,
        "long": -8.609466099999999,
        "type": "tourist attraction",
        "location": "Bonfim, Porto"
    },
    {
        "name": "Muralha Primitiva do Porto",
        "address": "Calçada de Vandoma, 4000-052 Porto, Portugal",
        "lat": 41.1430995,
        "long": -8.6104653,
        "type": "tourist attraction",
        "location": "Bonfim, Porto"
    },
    {
        "name": "Jardim do Morro",
        "address": "Jardim do Morro, 4430-210 Vila Nova de Gaia, Portugal",
        "lat": 41.1371459,
        "long": -8.6092935,
        "type": "tourist attraction",
        "location": "Bonfim, Porto"
    },
    {
        "name": "Largo da Pena Ventosa",
        "address": "Largo da Pena Ventosa 22, Porto, Portugal",
        "lat": 41.1427589,
        "long": -8.613057,
        "type": "tourist attraction",
        "location": "Bonfim, Porto"
    },
    {
        "name": "Letras do Porto",
        "address": "R. Clube dos Fenianos 5, 4000-407 Porto, Portugal",
        "lat": 41.1495691,
        "long": -8.6107619,
        "type": "tourist attraction",
        "location": "Bonfim, Porto"
    },
    {
        "name": "Episcopal Palace of Porto",
        "address": "Terreiro da Sé, Porto, Portugal",
        "lat": 41.141979,
        "long": -8.6117156,
        "type": "tourist attraction",
        "location": "Bonfim, Porto"
    },
    {
        "name": "Pillory of Porto",
        "address": "Terreiro da Sé, Porto, Portugal",
        "lat": 41.1425959,
        "long": -8.6119966,
        "type": "tourist attraction",
        "location": "Bonfim, Porto"
    },
    {
        "name": "Luís I Bridge",
        "address": "Ponte Luís I, Porto, Portugal",
        "lat": 41.1399589,
        "long": -8.6094485,
        "type": "tourist attraction",
        "location": "Bonfim, Porto"
    },
    {
        "name": "Sandeman Porto",
        "address": "R. de São Filipe de Nery 60, 4050-162 Porto, Portugal",
        "lat": 41.1376545,
        "long": -8.6124288,
        "type": "tourist attraction",
        "location": "Bonfim, Porto"
    },
    {
        "name": "Webcam Ribeira Porto",
        "address": "Largo do Terreiro 4, 4050-553 Porto, Portugal",
        "lat": 41.1402104,
        "long": -8.6146338,
        "type": "tourist attraction",
        "location": "Bonfim, Porto"
    },
    {
        "name": "Avenida dos Aliados",
        "address": "Av. dos Aliados 150, 4000-067 Porto, Portugal",
        "lat": 41.1483096,
        "long": -8.6108148,
        "type": "tourist attraction",
        "location": "Bonfim, Porto"
    },
    {
        "name": "Alameda das Fontaínhas",
        "address": "Alameda das Fontainhas 210, 4000-235 Porto, Portugal",
        "lat": 41.1425286,
        "long": -8.6002183,
        "type": "park",
        "location": "Bonfim, Porto"
    },
    {
        "name": "Jardim Marques de Oliveira",
        "address": "Passeio de São Lázaro 33, 4000-507 Porto, Portugal",
        "lat": 41.1459635,
        "long": -8.602522,
        "type": "park",
        "location": "Bonfim, Porto"
    },
    {
        "name": "Jardim Paulo Vallada",
        "address": "R. Dom Agostinho de Jesus e Sousa 49 4000, Porto, Portugal",
        "lat": 41.1531991,
        "long": -8.5980302,
        "type": "park",
        "location": "Bonfim, Porto"
    },
    {
        "name": "Parque da Formiga",
        "address": "Tv. da Formiga 65, 4300-207 Porto, Portugal",
        "lat": 41.1465314,
        "long": -8.5892646,
        "type": "park",
        "location": "Bonfim, Porto"
    },
    {
        "name": "Praça dos Poveiros",
        "address": "Praça dos Poveiros 84, 4000-033 Porto, Portugal",
        "lat": 41.1462724,
        "long": -8.6040011,
        "type": "park",
        "location": "Bonfim, Porto"
    },
    {
        "name": "Quinta do Covelo",
        "address": "Parque Covelo, R. de Bolama, 4200-042 Porto, Portugal",
        "lat": 41.1674237,
        "long": -8.6056232,
        "type": "park",
        "location": "Bonfim, Porto"
    },
    {
        "name": "Jardim de Fradelos",
        "address": "R. de Sá da Bandeira 772, 4000-462 Porto, Portugal",
        "lat": 41.1527079,
        "long": -8.6059742,
        "type": "park",
        "location": "Bonfim, Porto"
    },
    {
        "name": "Praça da Trindade",
        "address": "Praça Trindade 22, 4000-035 Porto, Portugal",
        "lat": 41.1505135,
        "long": -8.6106232,
        "type": "park",
        "location": "Bonfim, Porto"
    },
    {
        "name": "Parque do Covelo",
        "address": "R. de Bolama 4200, 4200-137 Porto, Portugal",
        "lat": 41.1653667,
        "long": -8.6046553,
        "type": "park",
        "location": "Bonfim, Porto"
    },
    {
        "name": "Parque da estação de metro Trindade",
        "address": "Tv. de Alferes Malheiro 59, 4000-059 Porto, Portugal",
        "lat": 41.1526026,
        "long": -8.609367899999999,
        "type": "park",
        "location": "Bonfim, Porto"
    },
    {
        "name": "Parque das Virtudes",
        "address": "Passeio das Virtudes 53-3, Porto, Portugal",
        "lat": 41.1447,
        "long": -8.6189879,
        "type": "park",
        "location": "Bonfim, Porto"
    },
    {
        "name": "Parque de São Roque",
        "address": "R. São Roque da Lameira 2040, 4350-307 Porto, Portugal",
        "lat": 41.15910239999999,
        "long": -8.5889002,
        "type": "park",
        "location": "Bonfim, Porto"
    },
    {
        "name": "Jardim da Cordoaria",
        "address": "Campo dos Mártires da Pátria, 4050-366 Porto, Portugal",
        "lat": 41.1458015,
        "long": -8.6167116,
        "type": "park",
        "location": "Bonfim, Porto"
    },
    {
        "name": "Jardim do Carregal (Carrilho Videira)",
        "address": "R. de Clemente Meneres 72, 4050-010 Porto, Portugal",
        "lat": 41.148362,
        "long": -8.619073799999999,
        "type": "park",
        "location": "Bonfim, Porto"
    },
    {
        "name": "Lago do Campo 24 de Agosto",
        "address": "4300-096 Porto, Portugal",
        "lat": 41.1495793,
        "long": -8.5988338,
        "type": "park",
        "location": "Bonfim, Porto"
    },
    {
        "name": "Jardim de Teófilo Braga",
        "address": "Praça da República, Porto, Portugal",
        "lat": 41.1544302,
        "long": -8.612663099999999,
        "type": "park",
        "location": "Bonfim, Porto"
    },
    {
        "name": "Parque das Águas",
        "address": "R. do Barão de Nova Sintra, 4300-367 Porto, Portugal",
        "lat": 41.1448682,
        "long": -8.5902476,
        "type": "park",
        "location": "Bonfim, Porto"
    },
    {
        "name": "Parque de Recreio de Bonjóia",
        "address": "R. Pinheiro de Campanhã 500, 4300-415 Porto, Portugal",
        "lat": 41.150925,
        "long": -8.583103699999999,
        "type": "park",
        "location": "Bonfim, Porto"
    },
    {
        "name": "Parque Oriental da Cidade do Porto",
        "address": "Parque Oriental da Cidade do Porto, Porto, Portugal",
        "lat": 41.1550291,
        "long": -8.5662159,
        "type": "park",
        "location": "Bonfim, Porto"
    },
    {
        "name": "Belém Garden",
        "address": "R. Carnide 86, Porto, Portugal",
        "lat": 41.172374,
        "long": -8.5839959,
        "type": "park",
        "location": "Bonfim, Porto"
    },
    {
        "name": "Casa Bom Fim . heritage house & garden",
        "address": "R. do Bonfim 305 A, 4300-070 Porto, Portugal",
        "lat": 41.1504393,
        "long": -8.5951191,
        "type": "community garden",
        "location": "Bonfim, Porto"
    },
    {
        "name": "Jardim do Passeio Alegre",
        "address": "R. do Passeio Alegre 828, 4150-570 Porto, Portugal",
        "lat": 41.1482061,
        "long": -8.6708015,
        "type": "community garden",
        "location": "Bonfim, Porto"
    },
    {
        "name": "Horta Municipal",
        "address": "Tv. do Ribeiro 38, 4200-374 Porto, Portugal",
        "lat": 41.17480279999999,
        "long": -8.6048849,
        "type": "community garden",
        "location": "Bonfim, Porto"
    },
    {
        "name": "Jardim Marques de Oliveira",
        "address": "Passeio de São Lázaro 33, 4000-507 Porto, Portugal",
        "lat": 41.1459635,
        "long": -8.602522,
        "type": "community garden",
        "location": "Bonfim, Porto"
    },
    {
        "name": "Parque Infantil de São Roque",
        "address": "4350-307 Porto, Portugal",
        "lat": 41.1594941,
        "long": -8.589865099999999,
        "type": "community garden",
        "location": "Bonfim, Porto"
    },
    {
        "name": "Urban Garden Porto Central Hostel",
        "address": "Rua da Alegria 291, 4000-044 Porto, Portugal",
        "lat": 41.1510487,
        "long": -8.604399899999999,
        "type": "community garden",
        "location": "Bonfim, Porto"
    },
    {
        "name": "Jardim do Morro",
        "address": "Jardim do Morro, 4430-210 Vila Nova de Gaia, Portugal",
        "lat": 41.1371459,
        "long": -8.6092935,
        "type": "community garden",
        "location": "Bonfim, Porto"
    },
    {
        "name": "Jardim dos Sentimentos",
        "address": "Rua da Restauração 116, 4050-394 Porto, Portugal",
        "lat": 41.1456417,
        "long": -8.6259034,
        "type": "community garden",
        "location": "Bonfim, Porto"
    },
    {
        "name": "Garden Porto",
        "address": "Rua de Fernandes Tomás 985, 4000-220 Porto, Portugal",
        "lat": 41.1506653,
        "long": -8.6100694,
        "type": "community garden",
        "location": "Bonfim, Porto"
    },
    {
        "name": "Jardim da Cordoaria",
        "address": "Campo dos Mártires da Pátria, 4050-366 Porto, Portugal",
        "lat": 41.1458015,
        "long": -8.6167116,
        "type": "community garden",
        "location": "Bonfim, Porto"
    },
    {
        "name": "Porto Bonfim 102",
        "address": "R. do Bonfim 102, 4300-096 Porto, Portugal",
        "lat": 41.1486929,
        "long": -8.597647,
        "type": "community garden",
        "location": "Bonfim, Porto"
    },
    {
        "name": "Jardins do Palácio de Cristal",
        "address": "R. de Dom Manuel II, 4050-346 Porto, Portugal",
        "lat": 41.1482682,
        "long": -8.6255165,
        "type": "community garden",
        "location": "Bonfim, Porto"
    },
    {
        "name": "Quinta do Covelo",
        "address": "Parque Covelo, R. de Bolama, 4200-042 Porto, Portugal",
        "lat": 41.1674237,
        "long": -8.6056232,
        "type": "community garden",
        "location": "Bonfim, Porto"
    },
    {
        "name": "Parque infantil Associação de Moradores do Campo Alegre",
        "address": "R. João Martins Branco, 4150-431 Porto, Portugal",
        "lat": 41.156605,
        "long": -8.6359164,
        "type": "community garden",
        "location": "Bonfim, Porto"
    },
    {
        "name": "Jardim Botânico do Porto | Museu de História Natural e da Ciência da U.Porto",
        "address": "Rua do Campo Alegre 1191, 4150-181 Porto, Portugal",
        "lat": 41.1537575,
        "long": -8.6425514,
        "type": "community garden",
        "location": "Bonfim, Porto"
    },